[{"Air_Date":1010448000000,"City":"Tokyo","Country":"Japan","Day":8,"Episode":1,"Latitude":35.689487,"Longitude":139.691706,"Month1":1,"Month":"January","Order":1,"Region":"Asia","Season":1,"Show":"A Cook's Tour","State":null,"Title":"A Taste of Tokyo","Year":2002},{"Air_Date":1010793600000,"City":"Atami","Country":"Japan","Day":12,"Episode":2,"Latitude":35.096276,"Longitude":139.071705,"Month1":1,"Month":"January","Order":2,"Region":"Asia","Season":1,"Show":"A Cook's Tour","State":null,"Title":"Dining with Geishas","Year":2002},{"Air_Date":1011052800000,"City":"Ho Chi Minh City","Country":"Vietnam","Day":15,"Episode":3,"Latitude":10.823099,"Longitude":106.629664,"Month1":1,"Month":"January","Order":3,"Region":"Asia","Season":1,"Show":"A Cook's Tour","State":null,"Title":"Cobra Heart - Foods That Make You Manly","Year":2002},{"Air_Date":1011052800000,"City":"Mekong River","Country":"Vietnam","Day":15,"Episode":4,"Latitude":15.933589,"Longitude":103.449284,"Month1":1,"Month":"January","Order":4,"Region":"Asia","Season":1,"Show":"A Cook's Tour","State":null,"Title":"Eating on the Mekong","Year":2002},{"Air_Date":1011657600000,"City":"Phnom Penh","Country":"Cambodia","Day":22,"Episode":5,"Latitude":11.556374,"Longitude":104.92821,"Month1":1,"Month":"January","Order":5,"Region":"Asia","Season":1,"Show":"A Cook's Tour","State":null,"Title":"Wild Delicacies","Year":2002},{"Air_Date":1012262400000,"City":"Battambang","Country":"Cambodia","Day":29,"Episode":6,"Latitude":13.09573,"Longitude":103.202205,"Month1":1,"Month":"January","Order":6,"Region":"Asia","Season":1,"Show":"A Cook's Tour","State":null,"Title":"Eating on the Edge of Nowhere","Year":2002},{"Air_Date":1012262400000,"City":"Pailin","Country":"Cambodia","Day":29,"Episode":6,"Latitude":12.909296,"Longitude":102.667557,"Month1":1,"Month":"January","Order":7,"Region":"Asia","Season":1,"Show":"A Cook's Tour","State":null,"Title":"Eating on the Edge of Nowhere","Year":2002},{"Air_Date":1012262400000,"City":"Tokyo","Country":"Japan","Day":29,"Episode":6,"Latitude":35.689487,"Longitude":139.691706,"Month1":1,"Month":"January","Order":8,"Region":"Asia","Season":1,"Show":"A Cook's Tour","State":null,"Title":"Eating on the Edge of Nowhere","Year":2002},{"Air_Date":1012867200000,"City":"Porto","Country":"Portugal","Day":5,"Episode":7,"Latitude":41.157944,"Longitude":-8.629105,"Month1":2,"Month":"February","Order":9,"Region":"Europe","Season":1,"Show":"A Cook's Tour","State":null,"Title":"Cod Crazy","Year":2002},{"Air_Date":1013472000000,"City":"San Sebastian","Country":"Spain","Day":12,"Episode":8,"Latitude":43.318334,"Longitude":-1.981231,"Month1":2,"Month":"February","Order":10,"Region":"Europe","Season":1,"Show":"A Cook's Tour","State":null,"Title":"San Sebastian: A Food Lover's Town","Year":2002},{"Air_Date":1014076800000,"City":"Arcachon","Country":"France","Day":19,"Episode":9,"Latitude":44.652297,"Longitude":-1.178502,"Month1":2,"Month":"February","Order":11,"Region":"Europe","Season":1,"Show":"A Cook's Tour","State":null,"Title":"Childhood Flavors","Year":2002},{"Air_Date":1014681600000,"City":"Amarante","Country":"Portugal","Day":26,"Episode":10,"Latitude":41.269636,"Longitude":-8.082649,"Month1":2,"Month":"February","Order":12,"Region":"Europe","Season":1,"Show":"A Cook's Tour","State":null,"Title":"Stuffed Like a Pig","Year":2002},{"Air_Date":1015286400000,"City":"Rissani","Country":"Morocco","Day":5,"Episode":11,"Latitude":31.279838,"Longitude":-4.258962,"Month1":3,"Month":"March","Order":13,"Region":"Africa","Season":1,"Show":"A Cook's Tour","State":null,"Title":"A Desert Feast","Year":2002},{"Air_Date":1015891200000,"City":"Fes","Country":"Morocco","Day":12,"Episode":12,"Latitude":34.018125,"Longitude":-5.007845,"Month1":3,"Month":"March","Order":14,"Region":"Africa","Season":1,"Show":"A Cook's Tour","State":null,"Title":"Traditional Tastes","Year":2002},{"Air_Date":1016496000000,"City":"St. Petersburg","Country":"Russia","Day":19,"Episode":13,"Latitude":59.93428,"Longitude":30.335099,"Month1":3,"Month":"March","Order":15,"Region":"Europe","Season":1,"Show":"A Cook's Tour","State":null,"Title":"The Cook Who Came In From the Cold","Year":2002},{"Air_Date":1017100800000,"City":"St. Petersburg","Country":"Russia","Day":26,"Episode":14,"Latitude":59.93428,"Longitude":30.335099,"Month1":3,"Month":"March","Order":16,"Region":"Europe","Season":1,"Show":"A Cook's Tour","State":null,"Title":"So Much Vodka, So Little Time","Year":2002},{"Air_Date":1017100800000,"City":"Oaxaca","Country":"Mexico","Day":26,"Episode":15,"Latitude":17.073184,"Longitude":-96.726589,"Month1":3,"Month":"March","Order":17,"Region":"North America","Season":1,"Show":"A Cook's Tour","State":null,"Title":"Tamales and Iguana, Oaxacan Style","Year":2002},{"Air_Date":1017705600000,"City":"Puebla","Country":"Mexico","Day":2,"Episode":16,"Latitude":19.04144,"Longitude":-98.206273,"Month1":4,"Month":"April","Order":18,"Region":"North America","Season":1,"Show":"A Cook's Tour","State":null,"Title":"Puebla, Where the Good Cooks Are From","Year":2002},{"Air_Date":1018310400000,"City":"Los Angeles","Country":"United States","Day":9,"Episode":17,"Latitude":34.052234,"Longitude":-118.243685,"Month1":4,"Month":"April","Order":19,"Region":"North America","Season":1,"Show":"A Cook's Tour","State":"California","Title":"Los Angeles, My Own Heart of Darkness","Year":2002},{"Air_Date":1018310400000,"City":"Napa Valley","Country":"United States","Day":9,"Episode":18,"Latitude":38.502469,"Longitude":-122.265389,"Month1":4,"Month":"April","Order":20,"Region":"North America","Season":1,"Show":"A Cook's Tour","State":"California","Title":"The French Laundry Experience","Year":2002},{"Air_Date":1018310400000,"City":"San Francisco","Country":"United States","Day":9,"Episode":18,"Latitude":37.774929,"Longitude":-122.419416,"Month1":4,"Month":"April","Order":21,"Region":"North America","Season":1,"Show":"A Cook's Tour","State":"California","Title":"The French Laundry Experience","Year":2002},{"Air_Date":1018915200000,"City":"New York City","Country":"United States","Day":16,"Episode":19,"Latitude":40.712775,"Longitude":-74.005973,"Month1":4,"Month":"April","Order":22,"Region":"North America","Season":1,"Show":"A Cook's Tour","State":"New York","Title":"My Hometown Favorites","Year":2002},{"Air_Date":1019520000000,"City":"New York City","Country":"United States","Day":23,"Episode":20,"Latitude":40.712775,"Longitude":-74.005973,"Month1":4,"Month":"April","Order":23,"Region":"North America","Season":1,"Show":"A Cook's Tour","State":"New York","Title":"My Life As a Cook","Year":2002},{"Air_Date":1019520000000,"City":"Provincetown","Country":"United States","Day":23,"Episode":20,"Latitude":42.058441,"Longitude":-70.178643,"Month1":4,"Month":"April","Order":24,"Region":"North America","Season":1,"Show":"A Cook's Tour","State":"Massachusetts","Title":"My Life As a Cook","Year":2002},{"Air_Date":1019520000000,"City":"Glasgow","Country":"United Kingdom","Day":23,"Episode":21,"Latitude":55.864237,"Longitude":-4.251806,"Month1":4,"Month":"April","Order":25,"Region":"Europe","Season":1,"Show":"A Cook's Tour","State":null,"Title":"Highland Grub","Year":2002},{"Air_Date":1020124800000,"City":"London","Country":"United Kingdom","Day":30,"Episode":22,"Latitude":51.507351,"Longitude":-0.127758,"Month1":4,"Month":"April","Order":26,"Region":"Europe","Season":1,"Show":"A Cook's Tour","State":null,"Title":"A Pleasing Palate","Year":2002},{"Air_Date":1042329600000,"City":"Saint-Martin","Country":"Saint-Martin","Day":12,"Episode":1,"Latitude":18.07083,"Longitude":-63.050081,"Month1":1,"Month":"January","Order":27,"Region":"Central America","Season":2,"Show":"A Cook's Tour","State":null,"Title":"Food Tastes Better with Sand Between your Toes","Year":2003},{"Air_Date":1042934400000,"City":"New Orleans","Country":"United States","Day":19,"Episode":2,"Latitude":29.951066,"Longitude":-90.071532,"Month1":1,"Month":"January","Order":28,"Region":"North America","Season":2,"Show":"A Cook's Tour","State":"Louisiana","Title":"No Beads, No Babes, No Bourbon Street","Year":2003},{"Air_Date":1043539200000,"City":"Salvador de Bahia","Country":"Brazil","Day":26,"Episode":3,"Latitude":-12.977749,"Longitude":-38.50163,"Month1":1,"Month":"January","Order":29,"Region":"South America","Season":2,"Show":"A Cook's Tour","State":null,"Title":"A Mystical World","Year":2003},{"Air_Date":1044144000000,"City":"Rio de Janeiro","Country":"Brazil","Day":2,"Episode":4,"Latitude":-22.906847,"Longitude":-43.172896,"Month1":2,"Month":"February","Order":30,"Region":"South America","Season":2,"Show":"A Cook's Tour","State":null,"Title":"How to be a Carioca","Year":2003},{"Air_Date":1044748800000,"City":"New York City","Country":"United States","Day":9,"Episode":5,"Latitude":40.712775,"Longitude":-74.005973,"Month1":2,"Month":"February","Order":31,"Region":"North America","Season":2,"Show":"A Cook's Tour","State":"New York","Title":"Elements of a Great Bar","Year":2003},{"Air_Date":1045353600000,"City":"Minneapolis","Country":"United States","Day":16,"Episode":6,"Latitude":44.977753,"Longitude":-93.265011,"Month1":2,"Month":"February","Order":32,"Region":"North America","Season":2,"Show":"A Cook's Tour","State":"Minnesota","Title":"The Struggle for the Soul of America","Year":2003},{"Air_Date":1045958400000,"City":"Kansas City","Country":"United States","Day":23,"Episode":7,"Latitude":39.114053,"Longitude":-94.627464,"Month1":2,"Month":"February","Order":33,"Region":"North America","Season":2,"Show":"A Cook's Tour","State":"Kansas","Title":"The BBQ Triangle","Year":2003},{"Air_Date":1045958400000,"City":"Houston","Country":"United States","Day":23,"Episode":7,"Latitude":29.760427,"Longitude":-95.369803,"Month1":2,"Month":"February","Order":34,"Region":"North America","Season":2,"Show":"A Cook's Tour","State":"Texas","Title":"The BBQ Triangle","Year":2003},{"Air_Date":1045958400000,"City":"Wilson","Country":"United States","Day":23,"Episode":7,"Latitude":35.721269,"Longitude":-77.91554,"Month1":2,"Month":"February","Order":35,"Region":"North America","Season":2,"Show":"A Cook's Tour","State":"North Carolina","Title":"The BBQ Triangle","Year":2003},{"Air_Date":1046563200000,"City":"Sydney","Country":"Australia","Day":2,"Episode":8,"Latitude":-33.86882,"Longitude":151.209296,"Month1":3,"Month":"March","Order":36,"Region":"Oceania","Season":2,"Show":"A Cook's Tour","State":null,"Title":"Mad Tony: The Food Warrior","Year":2003},{"Air_Date":1047168000000,"City":"Melbourne","Country":"Australia","Day":9,"Episode":9,"Latitude":-37.813628,"Longitude":144.963058,"Month1":3,"Month":"March","Order":37,"Region":"Oceania","Season":2,"Show":"A Cook's Tour","State":null,"Title":"Down Under: The Wild West of Cooking","Year":2003},{"Air_Date":1047772800000,"City":"Singapore","Country":"Singapore","Day":16,"Episode":10,"Latitude":1.352083,"Longitude":103.819836,"Month1":3,"Month":"March","Order":38,"Region":"Asia","Season":2,"Show":"A Cook's Tour","State":null,"Title":"Singapore: New York in Twenty Years","Year":2003},{"Air_Date":1048377600000,"City":"Chiang Mai","Country":"Thailand","Day":23,"Episode":11,"Latitude":18.706064,"Longitude":98.981716,"Month1":3,"Month":"March","Order":39,"Region":"Asia","Season":2,"Show":"A Cook's Tour","State":null,"Title":"Let's Get Lost","Year":2003},{"Air_Date":1048982400000,"City":"Hanoi","Country":"Vietnam","Day":30,"Episode":12,"Latitude":21.027764,"Longitude":105.83416,"Month1":3,"Month":"March","Order":40,"Region":"Asia","Season":2,"Show":"A Cook's Tour","State":null,"Title":"Gone Bamboo","Year":2003},{"Air_Date":1049673600000,"City":"Bangkok","Country":"Thailand","Day":7,"Episode":13,"Latitude":13.756331,"Longitude":100.501765,"Month1":4,"Month":"April","Order":41,"Region":"Asia","Season":2,"Show":"A Cook's Tour","State":null,"Title":"One Night in Bangkok","Year":2003},{"Air_Date":1049673600000,"City":"Singapore","Country":"Singapore","Day":7,"Episode":13,"Latitude":1.352083,"Longitude":103.819836,"Month1":4,"Month":"April","Order":42,"Region":"Asia","Season":2,"Show":"A Cook's Tour","State":null,"Title":"One Night in Bangkok","Year":2003},{"Air_Date":1122249600000,"City":"Paris","Country":"France","Day":25,"Episode":1,"Latitude":48.856614,"Longitude":2.352222,"Month1":7,"Month":"July","Order":43,"Region":"Europe","Season":1,"Show":"No Reservations","State":null,"Title":"France: Why the French Don't Suck","Year":2005},{"Air_Date":1122854400000,"City":"Reykjav\u00edk","Country":"Iceland","Day":1,"Episode":2,"Latitude":64.126521,"Longitude":-21.817439,"Month1":8,"Month":"August","Order":44,"Region":"Europe","Season":1,"Show":"No Reservations","State":null,"Title":"Iceland: Hello Darkness My Old Friend","Year":2005},{"Air_Date":1123459200000,"City":"Fort Lee","Country":"United States","Day":8,"Episode":3,"Latitude":40.850933,"Longitude":-73.970138,"Month1":8,"Month":"August","Order":45,"Region":"North America","Season":1,"Show":"No Reservations","State":"New Jersey","Title":"New Jersey","Year":2005},{"Air_Date":1123459200000,"City":"Barnegat Light","Country":"United States","Day":8,"Episode":3,"Latitude":39.75762,"Longitude":-74.106247,"Month1":8,"Month":"August","Order":46,"Region":"North America","Season":1,"Show":"No Reservations","State":"New Jersey","Title":"New Jersey","Year":2005},{"Air_Date":1123459200000,"City":"Atlantic City","Country":"United States","Day":8,"Episode":3,"Latitude":39.364283,"Longitude":-74.422927,"Month1":8,"Month":"August","Order":47,"Region":"North America","Season":1,"Show":"No Reservations","State":"New Jersey","Title":"New Jersey","Year":2005},{"Air_Date":1123459200000,"City":"Camden","Country":"United States","Day":8,"Episode":3,"Latitude":39.925946,"Longitude":-75.11962,"Month1":8,"Month":"August","Order":48,"Region":"North America","Season":1,"Show":"No Reservations","State":"New Jersey","Title":"New Jersey","Year":2005},{"Air_Date":1123459200000,"City":"Warren Grove","Country":"United States","Day":8,"Episode":3,"Latitude":39.746634,"Longitude":-74.370289,"Month1":8,"Month":"August","Order":49,"Region":"North America","Season":1,"Show":"No Reservations","State":"New Jersey","Title":"New Jersey","Year":2005},{"Air_Date":1123459200000,"City":"Asbury Park","Country":"United States","Day":8,"Episode":3,"Latitude":40.220391,"Longitude":-74.012082,"Month1":8,"Month":"August","Order":50,"Region":"North America","Season":1,"Show":"No Reservations","State":"New Jersey","Title":"New Jersey","Year":2005},{"Air_Date":1124064000000,"City":"Hanoi","Country":"Vietnam","Day":15,"Episode":4,"Latitude":21.027764,"Longitude":105.83416,"Month1":8,"Month":"August","Order":51,"Region":"Asia","Season":1,"Show":"No Reservations","State":null,"Title":"Vietnam: The Island of Mr. Sang","Year":2005},{"Air_Date":1124064000000,"City":"Mai Ch\u00e2u","Country":"Vietnam","Day":15,"Episode":4,"Latitude":20.690134,"Longitude":105.008989,"Month1":8,"Month":"August","Order":52,"Region":"Asia","Season":1,"Show":"No Reservations","State":null,"Title":"Vietnam: The Island of Mr. Sang","Year":2005},{"Air_Date":1124064000000,"City":"Tu\u1ea7n Ch\u00e2u","Country":"Vietnam","Day":15,"Episode":4,"Latitude":20.92745,"Longitude":106.986038,"Month1":8,"Month":"August","Order":53,"Region":"Asia","Season":1,"Show":"No Reservations","State":null,"Title":"Vietnam: The Island of Mr. Sang","Year":2005},{"Air_Date":1124668800000,"City":"Kuala Lumpur","Country":"Malaysia","Day":22,"Episode":5,"Latitude":3.139003,"Longitude":101.686855,"Month1":8,"Month":"August","Order":54,"Region":"Asia","Season":1,"Show":"No Reservations","State":null,"Title":"Malaysia: Into the Jungle","Year":2005},{"Air_Date":1128902400000,"City":"Agrigento","Country":"Italy","Day":10,"Episode":6,"Latitude":37.309407,"Longitude":13.585982,"Month1":10,"Month":"October","Order":55,"Region":"Europe","Season":1,"Show":"No Reservations","State":null,"Title":"Sicily","Year":2005},{"Air_Date":1128902400000,"City":"Catania","Country":"Italy","Day":10,"Episode":6,"Latitude":37.507877,"Longitude":15.08303,"Month1":10,"Month":"October","Order":56,"Region":"Europe","Season":1,"Show":"No Reservations","State":null,"Title":"Sicily","Year":2005},{"Air_Date":1128902400000,"City":"Parlermo","Country":"Italy","Day":10,"Episode":6,"Latitude":38.115688,"Longitude":13.361267,"Month1":10,"Month":"October","Order":57,"Region":"Europe","Season":1,"Show":"No Reservations","State":null,"Title":"Sicily","Year":2005},{"Air_Date":1128902400000,"City":"Taormina","Country":"Italy","Day":10,"Episode":6,"Latitude":37.851637,"Longitude":15.285313,"Month1":10,"Month":"October","Order":58,"Region":"Europe","Season":1,"Show":"No Reservations","State":null,"Title":"Sicily","Year":2005},{"Air_Date":1128902400000,"City":"Trapani","Country":"Italy","Day":10,"Episode":6,"Latitude":38.017618,"Longitude":12.537202,"Month1":10,"Month":"October","Order":59,"Region":"Europe","Season":1,"Show":"No Reservations","State":null,"Title":"Sicily","Year":2005},{"Air_Date":1129507200000,"City":"Las Vegas","Country":"United States","Day":17,"Episode":7,"Latitude":36.169941,"Longitude":-115.13983,"Month1":10,"Month":"October","Order":60,"Region":"North America","Season":1,"Show":"No Reservations","State":"Nevada","Title":"Las Vegas","Year":2005},{"Air_Date":1130112000000,"City":"Samarkand","Country":"Uzbekistan","Day":24,"Episode":8,"Latitude":39.627012,"Longitude":66.974973,"Month1":10,"Month":"October","Order":61,"Region":"Asia","Season":1,"Show":"No Reservations","State":null,"Title":"Uzbekistan","Year":2005},{"Air_Date":1130112000000,"City":"Tashkent","Country":"Uzbekistan","Day":24,"Episode":8,"Latitude":41.299496,"Longitude":69.240073,"Month1":10,"Month":"October","Order":62,"Region":"Asia","Season":1,"Show":"No Reservations","State":null,"Title":"Uzbekistan","Year":2005},{"Air_Date":1131321600000,"City":"Christchurch","Country":"New Zealand","Day":7,"Episode":9,"Latitude":-43.532054,"Longitude":172.636225,"Month1":11,"Month":"November","Order":63,"Region":"Oceania","Season":1,"Show":"No Reservations","State":null,"Title":"New Zealand: Down Under the Down Under","Year":2005},{"Air_Date":1143417600000,"City":"Beijing","Country":"China","Day":27,"Episode":1,"Latitude":39.9042,"Longitude":116.407396,"Month1":3,"Month":"March","Order":64,"Region":"Asia","Season":2,"Show":"No Reservations","State":null,"Title":"Asia Special: China & Japan","Year":2006},{"Air_Date":1143417600000,"City":"Chengdu","Country":"China","Day":27,"Episode":1,"Latitude":30.572815,"Longitude":104.066801,"Month1":3,"Month":"March","Order":65,"Region":"Asia","Season":2,"Show":"No Reservations","State":null,"Title":"Asia Special: China & Japan","Year":2006},{"Air_Date":1143417600000,"City":"Kisoji","Country":"Japan","Day":27,"Episode":1,"Latitude":36.074885,"Longitude":138.089862,"Month1":3,"Month":"March","Order":66,"Region":"Asia","Season":2,"Show":"No Reservations","State":null,"Title":"Asia Special: China & Japan","Year":2006},{"Air_Date":1143417600000,"City":"Osaka","Country":"Japan","Day":27,"Episode":1,"Latitude":34.693738,"Longitude":135.502165,"Month1":3,"Month":"March","Order":67,"Region":"Asia","Season":2,"Show":"No Reservations","State":null,"Title":"Asia Special: China & Japan","Year":2006},{"Air_Date":1143417600000,"City":"Xi\u2019an","Country":"China","Day":27,"Episode":1,"Latitude":34.341574,"Longitude":108.93977,"Month1":3,"Month":"March","Order":68,"Region":"Asia","Season":2,"Show":"No Reservations","State":null,"Title":"Asia Special: China & Japan","Year":2006},{"Air_Date":1144022400000,"City":"Miami","Country":"United States","Day":3,"Episode":2,"Latitude":25.76168,"Longitude":-80.19179,"Month1":4,"Month":"April","Order":69,"Region":"North America","Season":2,"Show":"No Reservations","State":"Florida","Title":"South Florida","Year":2006},{"Air_Date":1144022400000,"City":"Key West","Country":"United States","Day":3,"Episode":2,"Latitude":24.555059,"Longitude":-81.779987,"Month1":4,"Month":"April","Order":70,"Region":"North America","Season":2,"Show":"No Reservations","State":"Florida","Title":"South Florida","Year":2006},{"Air_Date":1144627200000,"City":"Cusco","Country":"Peru","Day":10,"Episode":3,"Latitude":-13.53195,"Longitude":-71.967463,"Month1":4,"Month":"April","Order":71,"Region":"South America","Season":2,"Show":"No Reservations","State":null,"Title":"Peru","Year":2006},{"Air_Date":1144627200000,"City":"Lima","Country":"Peru","Day":10,"Episode":3,"Latitude":-12.046373,"Longitude":-77.042754,"Month1":4,"Month":"April","Order":72,"Region":"South America","Season":2,"Show":"No Reservations","State":null,"Title":"Peru","Year":2006},{"Air_Date":1144627200000,"City":"Machu Picchu","Country":"Peru","Day":10,"Episode":3,"Latitude":-13.163141,"Longitude":-72.544963,"Month1":4,"Month":"April","Order":73,"Region":"South America","Season":2,"Show":"No Reservations","State":null,"Title":"Peru","Year":2006},{"Air_Date":1144627200000,"City":"Tambopata","Country":"Peru","Day":10,"Episode":3,"Latitude":-12.582529,"Longitude":-69.193276,"Month1":4,"Month":"April","Order":74,"Region":"South America","Season":2,"Show":"No Reservations","State":null,"Title":"Peru","Year":2006},{"Air_Date":1145232000000,"City":"Inukjuak","Country":"Canada","Day":17,"Episode":4,"Latitude":58.455121,"Longitude":-78.105103,"Month1":4,"Month":"April","Order":75,"Region":"North America","Season":2,"Show":"No Reservations","State":null,"Title":"Quebec","Year":2006},{"Air_Date":1145232000000,"City":"Marieville","Country":"Canada","Day":17,"Episode":4,"Latitude":45.432629,"Longitude":-73.160204,"Month1":4,"Month":"April","Order":76,"Region":"North America","Season":2,"Show":"No Reservations","State":null,"Title":"Quebec","Year":2006},{"Air_Date":1145232000000,"City":"Montreal","Country":"Canada","Day":17,"Episode":4,"Latitude":45.501689,"Longitude":-73.567256,"Month1":4,"Month":"April","Order":77,"Region":"North America","Season":2,"Show":"No Reservations","State":null,"Title":"Quebec","Year":2006},{"Air_Date":1145232000000,"City":"Rigaud","Country":"Canada","Day":17,"Episode":4,"Latitude":45.483074,"Longitude":-74.282199,"Month1":4,"Month":"April","Order":78,"Region":"North America","Season":2,"Show":"No Reservations","State":null,"Title":"Quebec","Year":2006},{"Air_Date":1145836800000,"City":"Stockholm","Country":"Sweden","Day":24,"Episode":5,"Latitude":59.329323,"Longitude":18.068581,"Month1":4,"Month":"April","Order":79,"Region":"Europe","Season":2,"Show":"No Reservations","State":null,"Title":"Sweden","Year":2006},{"Air_Date":1146441600000,"City":"Bayam","Country":"Puerto Rico","Day":1,"Episode":6,"Latitude":18.220833,"Longitude":-66.590149,"Month1":5,"Month":"May","Order":80,"Region":"Central America","Season":2,"Show":"No Reservations","State":null,"Title":"Puerto Rico","Year":2006},{"Air_Date":1146441600000,"City":"Caguas","Country":"Puerto Rico","Day":1,"Episode":6,"Latitude":18.238799,"Longitude":-66.035249,"Month1":5,"Month":"May","Order":81,"Region":"Central America","Season":2,"Show":"No Reservations","State":null,"Title":"Puerto Rico","Year":2006},{"Air_Date":1146441600000,"City":"Cayey","Country":"Puerto Rico","Day":1,"Episode":6,"Latitude":18.111905,"Longitude":-66.166,"Month1":5,"Month":"May","Order":82,"Region":"Central America","Season":2,"Show":"No Reservations","State":null,"Title":"Puerto Rico","Year":2006},{"Air_Date":1146441600000,"City":"Isabela","Country":"Puerto Rico","Day":1,"Episode":6,"Latitude":18.470386,"Longitude":-67.024206,"Month1":5,"Month":"May","Order":83,"Region":"Central America","Season":2,"Show":"No Reservations","State":null,"Title":"Puerto Rico","Year":2006},{"Air_Date":1146441600000,"City":"Ponce","Country":"Puerto Rico","Day":1,"Episode":6,"Latitude":18.011077,"Longitude":-66.614062,"Month1":5,"Month":"May","Order":84,"Region":"Central America","Season":2,"Show":"No Reservations","State":null,"Title":"Puerto Rico","Year":2006},{"Air_Date":1146441600000,"City":"San Juan","Country":"Puerto Rico","Day":1,"Episode":6,"Latitude":18.465539,"Longitude":-66.105735,"Month1":5,"Month":"May","Order":85,"Region":"Central America","Season":2,"Show":"No Reservations","State":null,"Title":"Puerto Rico","Year":2006},{"Air_Date":1146441600000,"City":"Vega Baja","Country":"Puerto Rico","Day":1,"Episode":6,"Latitude":18.446922,"Longitude":-66.397314,"Month1":5,"Month":"May","Order":86,"Region":"Central America","Season":2,"Show":"No Reservations","State":null,"Title":"Puerto Rico","Year":2006},{"Air_Date":1147046400000,"City":"Osaka","Country":"Japan","Day":8,"Episode":7,"Latitude":34.693738,"Longitude":135.502165,"Month1":5,"Month":"May","Order":87,"Region":"Asia","Season":2,"Show":"No Reservations","State":null,"Title":"Japan","Year":2006},{"Air_Date":1148256000000,"City":"Del Rio","Country":"United States","Day":22,"Episode":8,"Latitude":29.370886,"Longitude":-100.895867,"Month1":5,"Month":"May","Order":88,"Region":"North America","Season":2,"Show":"No Reservations","State":"Texas","Title":"US\/Mexico Border","Year":2006},{"Air_Date":1148256000000,"City":"Rio Grande","Country":"United States","Day":22,"Episode":8,"Latitude":26.379787,"Longitude":-98.820305,"Month1":5,"Month":"May","Order":89,"Region":"North America","Season":2,"Show":"No Reservations","State":"Texas","Title":"US\/Mexico Border","Year":2006},{"Air_Date":1148256000000,"City":"Laredo","Country":"United States","Day":22,"Episode":8,"Latitude":27.530567,"Longitude":-99.480324,"Month1":5,"Month":"May","Order":90,"Region":"North America","Season":2,"Show":"No Reservations","State":"Texas","Title":"US\/Mexico Border","Year":2006},{"Air_Date":1148256000000,"City":"Eagle Pass","Country":"United States","Day":22,"Episode":8,"Latitude":28.709143,"Longitude":-100.499521,"Month1":5,"Month":"May","Order":91,"Region":"North America","Season":2,"Show":"No Reservations","State":"Texas","Title":"US\/Mexico Border","Year":2006},{"Air_Date":1148256000000,"City":"Coahu\u00edla","Country":"Mexico","Day":22,"Episode":8,"Latitude":27.058676,"Longitude":-101.706829,"Month1":5,"Month":"May","Order":92,"Region":"North America","Season":2,"Show":"No Reservations","State":null,"Title":"US\/Mexico Border","Year":2006},{"Air_Date":1148256000000,"City":"Monterrey","Country":"Mexico","Day":22,"Episode":8,"Latitude":25.686614,"Longitude":-100.316113,"Month1":5,"Month":"May","Order":93,"Region":"North America","Season":2,"Show":"No Reservations","State":null,"Title":"US\/Mexico Border","Year":2006},{"Air_Date":1148256000000,"City":"Tamaulipas","Country":"Mexico","Day":22,"Episode":8,"Latitude":24.26694,"Longitude":-98.836275,"Month1":5,"Month":"May","Order":94,"Region":"North America","Season":2,"Show":"No Reservations","State":null,"Title":"US\/Mexico Border","Year":2006},{"Air_Date":1148860800000,"City":"Jaisalmer","Country":"India","Day":29,"Episode":9,"Latitude":26.915749,"Longitude":70.908344,"Month1":5,"Month":"May","Order":95,"Region":"Asia","Season":2,"Show":"No Reservations","State":null,"Title":"India (Rajasthan)","Year":2006},{"Air_Date":1148860800000,"City":"Jodhpur","Country":"India","Day":29,"Episode":9,"Latitude":26.238947,"Longitude":73.024309,"Month1":5,"Month":"May","Order":96,"Region":"Asia","Season":2,"Show":"No Reservations","State":null,"Title":"India (Rajasthan)","Year":2006},{"Air_Date":1148860800000,"City":"Udaipur","Country":"India","Day":29,"Episode":9,"Latitude":24.585445,"Longitude":73.712479,"Month1":5,"Month":"May","Order":97,"Region":"Asia","Season":2,"Show":"No Reservations","State":null,"Title":"India (Rajasthan)","Year":2006},{"Air_Date":1149465600000,"City":"Kolkata","Country":"India","Day":5,"Episode":10,"Latitude":22.572646,"Longitude":88.363895,"Month1":6,"Month":"June","Order":98,"Region":"Asia","Season":2,"Show":"No Reservations","State":null,"Title":"India (Kolkata\/Mumbai)","Year":2006},{"Air_Date":1149465600000,"City":"Mumbai","Country":"India","Day":5,"Episode":10,"Latitude":19.075984,"Longitude":72.877656,"Month1":6,"Month":"June","Order":99,"Region":"Asia","Season":2,"Show":"No Reservations","State":null,"Title":"India (Kolkata\/Mumbai)","Year":2006},{"Air_Date":1150070400000,"City":"Seoul","Country":"South Korea","Day":12,"Episode":11,"Latitude":37.566535,"Longitude":126.977969,"Month1":6,"Month":"June","Order":100,"Region":"Asia","Season":2,"Show":"No Reservations","State":null,"Title":"Korea","Year":2006},{"Air_Date":1150675200000,"City":"Bali","Country":"Indonesia","Day":19,"Episode":12,"Latitude":-8.409518,"Longitude":115.188916,"Month1":6,"Month":"June","Order":101,"Region":"Asia","Season":2,"Show":"No Reservations","State":null,"Title":"Indonesia","Year":2006},{"Air_Date":1150675200000,"City":"Jakarta","Country":"Indonesia","Day":19,"Episode":12,"Latitude":-6.17511,"Longitude":106.865039,"Month1":6,"Month":"June","Order":102,"Region":"Asia","Season":2,"Show":"No Reservations","State":null,"Title":"Indonesia","Year":2006},{"Air_Date":1151884800000,"City":"Barcelona","Country":"Spain","Day":3,"Episode":13,"Latitude":41.385064,"Longitude":2.173403,"Month1":7,"Month":"July","Order":103,"Region":"Europe","Season":2,"Show":"No Reservations","State":null,"Title":"Special: Decoding Ferran Adria","Year":2006},{"Air_Date":1156118400000,"City":"Beirut","Country":"Lebanon","Day":21,"Episode":14,"Latitude":33.893791,"Longitude":35.501777,"Month1":8,"Month":"August","Order":104,"Region":"Middle East","Season":2,"Show":"No Reservations","State":null,"Title":"Special: Anthony Bourdain in Beirut","Year":2006},{"Air_Date":1167609600000,"City":"Belfast","Country":"United Kingdom","Day":1,"Episode":1,"Latitude":54.597285,"Longitude":-5.93012,"Month1":1,"Month":"January","Order":105,"Region":"Europe","Season":3,"Show":"No Reservations","State":null,"Title":"Ireland","Year":2007},{"Air_Date":1167609600000,"City":"Dublin","Country":"United Kingdom","Day":1,"Episode":1,"Latitude":53.349805,"Longitude":-6.26031,"Month1":1,"Month":"January","Order":106,"Region":"Europe","Season":3,"Show":"No Reservations","State":null,"Title":"Ireland","Year":2007},{"Air_Date":1168214400000,"City":"Accra","Country":"Ghana","Day":8,"Episode":2,"Latitude":5.603717,"Longitude":-0.186964,"Month1":1,"Month":"January","Order":107,"Region":"Africa","Season":3,"Show":"No Reservations","State":null,"Title":"Ghana","Year":2007},{"Air_Date":1168214400000,"City":"Adanwomase","Country":"Ghana","Day":8,"Episode":2,"Latitude":6.831355,"Longitude":-1.462624,"Month1":1,"Month":"January","Order":108,"Region":"Africa","Season":3,"Show":"No Reservations","State":null,"Title":"Ghana","Year":2007},{"Air_Date":1168214400000,"City":"Ashanti","Country":"Ghana","Day":8,"Episode":2,"Latitude":6.747044,"Longitude":-1.520862,"Month1":1,"Month":"January","Order":109,"Region":"Africa","Season":3,"Show":"No Reservations","State":null,"Title":"Ghana","Year":2007},{"Air_Date":1168214400000,"City":"Beyin","Country":"Ghana","Day":8,"Episode":2,"Latitude":4.98847,"Longitude":-2.590404,"Month1":1,"Month":"January","Order":110,"Region":"Africa","Season":3,"Show":"No Reservations","State":null,"Title":"Ghana","Year":2007},{"Air_Date":1168214400000,"City":"Mole Game Reserve","Country":"Ghana","Day":8,"Episode":2,"Latitude":9.5,"Longitude":-2.0,"Month1":1,"Month":"January","Order":111,"Region":"Africa","Season":3,"Show":"No Reservations","State":null,"Title":"Ghana","Year":2007},{"Air_Date":1168214400000,"City":"Nzulezo","Country":"Ghana","Day":8,"Episode":2,"Latitude":5.020827,"Longitude":-2.597921,"Month1":1,"Month":"January","Order":112,"Region":"Africa","Season":3,"Show":"No Reservations","State":null,"Title":"Ghana","Year":2007},{"Air_Date":1168819200000,"City":"Portland","Country":"United States","Day":15,"Episode":3,"Latitude":45.512231,"Longitude":-122.658719,"Month1":1,"Month":"January","Order":113,"Region":"North America","Season":3,"Show":"No Reservations","State":"Oregon","Title":"Pacific Northwest","Year":2007},{"Air_Date":1168819200000,"City":"Seattle","Country":"United States","Day":15,"Episode":3,"Latitude":47.606209,"Longitude":-122.332071,"Month1":1,"Month":"January","Order":114,"Region":"North America","Season":3,"Show":"No Reservations","State":"Washington","Title":"Pacific Northwest","Year":2007},{"Air_Date":1168819200000,"City":"Shelton","Country":"United States","Day":15,"Episode":3,"Latitude":47.215094,"Longitude":-123.100707,"Month1":1,"Month":"January","Order":115,"Region":"North America","Season":3,"Show":"No Reservations","State":"Washington","Title":"Pacific Northwest","Year":2007},{"Air_Date":1169424000000,"City":"Katutura","Country":"Namibia","Day":22,"Episode":4,"Latitude":-22.521134,"Longitude":17.059849,"Month1":1,"Month":"January","Order":116,"Region":"Africa","Season":3,"Show":"No Reservations","State":null,"Title":"Namibia","Year":2007},{"Air_Date":1169424000000,"City":"Khomas","Country":"Namibia","Day":22,"Episode":4,"Latitude":-22.637785,"Longitude":17.101193,"Month1":1,"Month":"January","Order":117,"Region":"Africa","Season":3,"Show":"No Reservations","State":null,"Title":"Namibia","Year":2007},{"Air_Date":1169424000000,"City":"Walvis Bay","Country":"Namibia","Day":22,"Episode":4,"Latitude":-22.958408,"Longitude":14.505751,"Month1":1,"Month":"January","Order":118,"Region":"Africa","Season":3,"Show":"No Reservations","State":null,"Title":"Namibia","Year":2007},{"Air_Date":1169424000000,"City":"Windhoek","Country":"Namibia","Day":22,"Episode":4,"Latitude":-22.560881,"Longitude":17.065755,"Month1":1,"Month":"January","Order":119,"Region":"Africa","Season":3,"Show":"No Reservations","State":null,"Title":"Namibia","Year":2007},{"Air_Date":1170028800000,"City":"Moscow","Country":"Russia","Day":29,"Episode":5,"Latitude":55.755826,"Longitude":37.6173,"Month1":1,"Month":"January","Order":120,"Region":"Europe","Season":3,"Show":"No Reservations","State":null,"Title":"Russia","Year":2007},{"Air_Date":1170633600000,"City":"Los Angeles","Country":"United States","Day":5,"Episode":6,"Latitude":34.052234,"Longitude":-118.243685,"Month1":2,"Month":"February","Order":121,"Region":"North America","Season":3,"Show":"No Reservations","State":"California","Title":"Los Angeles","Year":2007},{"Air_Date":1185753600000,"City":"Dali","Country":"China","Day":30,"Episode":7,"Latitude":25.606486,"Longitude":100.267638,"Month1":7,"Month":"July","Order":122,"Region":"Asia","Season":3,"Show":"No Reservations","State":null,"Title":"From Shanghai to Shangri-la","Year":2007},{"Air_Date":1185753600000,"City":"Lijiang","Country":"China","Day":30,"Episode":7,"Latitude":26.855047,"Longitude":100.22775,"Month1":7,"Month":"July","Order":123,"Region":"Asia","Season":3,"Show":"No Reservations","State":null,"Title":"From Shanghai to Shangri-la","Year":2007},{"Air_Date":1185753600000,"City":"Shanghai","Country":"China","Day":30,"Episode":7,"Latitude":31.23039,"Longitude":121.473702,"Month1":7,"Month":"July","Order":124,"Region":"Asia","Season":3,"Show":"No Reservations","State":null,"Title":"From Shanghai to Shangri-la","Year":2007},{"Air_Date":1185753600000,"City":"Zhangdian","Country":"China","Day":30,"Episode":7,"Latitude":36.806669,"Longitude":118.017938,"Month1":7,"Month":"July","Order":125,"Region":"Asia","Season":3,"Show":"No Reservations","State":null,"Title":"From Shanghai to Shangri-la","Year":2007},{"Air_Date":1186358400000,"City":"New York","Country":"United States","Day":6,"Episode":8,"Latitude":40.712775,"Longitude":-74.005973,"Month1":8,"Month":"August","Order":126,"Region":"North America","Season":3,"Show":"No Reservations","State":"New York","Title":"New York City","Year":2007},{"Air_Date":1186963200000,"City":"S\u00e3o Paulo","Country":"Brazil","Day":13,"Episode":9,"Latitude":-23.55052,"Longitude":-46.633309,"Month1":8,"Month":"August","Order":127,"Region":"South America","Season":3,"Show":"No Reservations","State":null,"Title":"Brazil","Year":2007},{"Air_Date":1187568000000,"City":"Pape'ete, Tahiti","Country":"French Polynesia","Day":20,"Episode":10,"Latitude":-17.551625,"Longitude":-149.558476,"Month1":8,"Month":"August","Order":128,"Region":"Oceania","Season":3,"Show":"No Reservations","State":null,"Title":"French Polynesia","Year":2007},{"Air_Date":1187568000000,"City":"Rangiroa, Tuamotu Archipelago","Country":"French Polynesia","Day":20,"Episode":10,"Latitude":-15.116228,"Longitude":-147.651301,"Month1":8,"Month":"August","Order":129,"Region":"Oceania","Season":3,"Show":"No Reservations","State":null,"Title":"French Polynesia","Year":2007},{"Air_Date":1187568000000,"City":"Hiva Oa Tahuata, Marquesas Islands","Country":"French Polynesia","Day":20,"Episode":10,"Latitude":-9.762759,"Longitude":-139.013569,"Month1":8,"Month":"August","Order":130,"Region":"Oceania","Season":3,"Show":"No Reservations","State":null,"Title":"French Polynesia","Year":2007},{"Air_Date":1188172800000,"City":"Cleveland","Country":"United States","Day":27,"Episode":11,"Latitude":41.49932,"Longitude":-81.694361,"Month1":8,"Month":"August","Order":131,"Region":"North America","Season":3,"Show":"No Reservations","State":"Ohio","Title":"Cleveland","Year":2007},{"Air_Date":1188777600000,"City":"Hong Kong","Country":"China","Day":3,"Episode":12,"Latitude":22.396428,"Longitude":114.109497,"Month1":9,"Month":"September","Order":132,"Region":"Asia","Season":3,"Show":"No Reservations","State":null,"Title":"Hong Kong","Year":2007},{"Air_Date":1189382400000,"City":"Buenos Aires","Country":"Argentina","Day":10,"Episode":13,"Latitude":-34.603684,"Longitude":-58.381559,"Month1":9,"Month":"September","Order":133,"Region":"South America","Season":3,"Show":"No Reservations","State":null,"Title":"Argentina","Year":2007},{"Air_Date":1189987200000,"City":"Charleston","Country":"United States","Day":17,"Episode":14,"Latitude":32.776475,"Longitude":-79.931051,"Month1":9,"Month":"September","Order":134,"Region":"North America","Season":3,"Show":"No Reservations","State":"South Carolina","Title":"South Carolina","Year":2007},{"Air_Date":1190592000000,"City":"Tuscany","Country":"Italy","Day":24,"Episode":15,"Latitude":43.771051,"Longitude":11.248621,"Month1":9,"Month":"September","Order":135,"Region":"Europe","Season":3,"Show":"No Reservations","State":null,"Title":"Tuscany","Year":2007},{"Air_Date":1197244800000,"City":"Danbury","Country":"United States","Day":10,"Episode":16,"Latitude":41.394817,"Longitude":-73.454011,"Month1":12,"Month":"December","Order":136,"Region":"North America","Season":3,"Show":"No Reservations","State":"Connecticut","Title":"Holiday Special","Year":2007},{"Air_Date":1199664000000,"City":"Singapore","Country":"Singapore","Day":7,"Episode":1,"Latitude":1.352083,"Longitude":103.819836,"Month1":1,"Month":"January","Order":137,"Region":"Asia","Season":4,"Show":"No Reservations","State":null,"Title":"Singapore","Year":2008},{"Air_Date":1200268800000,"City":"Berlin","Country":"Germany","Day":14,"Episode":2,"Latitude":52.520007,"Longitude":13.404954,"Month1":1,"Month":"January","Order":138,"Region":"Europe","Season":4,"Show":"No Reservations","State":null,"Title":"Berlin","Year":2008},{"Air_Date":1200873600000,"City":"Vancouver","Country":"Canada","Day":21,"Episode":3,"Latitude":49.282729,"Longitude":-123.120738,"Month1":1,"Month":"January","Order":139,"Region":"North America","Season":4,"Show":"No Reservations","State":null,"Title":"Vancouver, BC","Year":2008},{"Air_Date":1201478400000,"City":"Crete","Country":"Greece","Day":28,"Episode":4,"Latitude":35.240117,"Longitude":24.809269,"Month1":1,"Month":"January","Order":140,"Region":"Europe","Season":4,"Show":"No Reservations","State":null,"Title":"Greek Islands","Year":2008},{"Air_Date":1201478400000,"City":"Zakynthos","Country":"Greece","Day":28,"Episode":4,"Latitude":37.787033,"Longitude":20.899876,"Month1":1,"Month":"January","Order":141,"Region":"Europe","Season":4,"Show":"No Reservations","State":null,"Title":"Greek Islands","Year":2008},{"Air_Date":1202083200000,"City":"New Orleans","Country":"United States","Day":4,"Episode":5,"Latitude":29.951066,"Longitude":-90.071532,"Month1":2,"Month":"February","Order":142,"Region":"North America","Season":4,"Show":"No Reservations","State":"Louisiana","Title":"New Orleans","Year":2008},{"Air_Date":1202688000000,"City":"London","Country":"United Kingdom","Day":11,"Episode":6,"Latitude":51.507351,"Longitude":-0.127758,"Month1":2,"Month":"February","Order":143,"Region":"Europe","Season":4,"Show":"No Reservations","State":null,"Title":"London\/Edinburgh","Year":2008},{"Air_Date":1202688000000,"City":"Edinburgh","Country":"United Kingdom","Day":11,"Episode":6,"Latitude":55.953252,"Longitude":-3.188267,"Month1":2,"Month":"February","Order":144,"Region":"Europe","Season":4,"Show":"No Reservations","State":null,"Title":"London\/Edinburgh","Year":2008},{"Air_Date":1203292800000,"City":"Kingston","Country":"Jamaica","Day":18,"Episode":7,"Latitude":18.017874,"Longitude":-76.809904,"Month1":2,"Month":"February","Order":145,"Region":"Central America","Season":4,"Show":"No Reservations","State":null,"Title":"Jamaica","Year":2008},{"Air_Date":1203897600000,"City":"Bucharest","Country":"Romania","Day":25,"Episode":8,"Latitude":44.426767,"Longitude":26.102538,"Month1":2,"Month":"February","Order":146,"Region":"Europe","Season":4,"Show":"No Reservations","State":null,"Title":"Romania","Year":2008},{"Air_Date":1203897600000,"City":"Bra\u0219ov","Country":"Romania","Day":25,"Episode":8,"Latitude":45.657975,"Longitude":25.601198,"Month1":2,"Month":"February","Order":147,"Region":"Europe","Season":4,"Show":"No Reservations","State":null,"Title":"Romania","Year":2008},{"Air_Date":1204502400000,"City":"Honolulu","Country":"United States","Day":3,"Episode":9,"Latitude":21.306944,"Longitude":-157.858333,"Month1":3,"Month":"March","Order":148,"Region":"Oceania","Season":4,"Show":"No Reservations","State":"Hawaii","Title":"Hawaii","Year":2008},{"Air_Date":1204502400000,"City":"Kapolei","Country":"United States","Day":3,"Episode":9,"Latitude":21.335391,"Longitude":-158.056896,"Month1":3,"Month":"March","Order":149,"Region":"Oceania","Season":4,"Show":"No Reservations","State":"Hawaii","Title":"Hawaii","Year":2008},{"Air_Date":1204502400000,"City":"North Shore","Country":"United States","Day":3,"Episode":9,"Latitude":21.561657,"Longitude":-158.071598,"Month1":3,"Month":"March","Order":150,"Region":"Oceania","Season":4,"Show":"No Reservations","State":"Hawaii","Title":"Hawaii","Year":2008},{"Air_Date":1204502400000,"City":"Koloa","Country":"United States","Day":3,"Episode":9,"Latitude":21.906667,"Longitude":-159.469167,"Month1":3,"Month":"March","Order":151,"Region":"Oceania","Season":4,"Show":"No Reservations","State":"Hawaii","Title":"Hawaii","Year":2008},{"Air_Date":1205107200000,"City":"Manhattan","Country":"United States","Day":10,"Episode":10,"Latitude":40.78306,"Longitude":-73.971249,"Month1":3,"Month":"March","Order":152,"Region":"North America","Season":4,"Show":"No Reservations","State":"New York","Title":"Into the Fire NY","Year":2008},{"Air_Date":1215388800000,"City":"Vientiane","Country":"Laos","Day":7,"Episode":11,"Latitude":17.975706,"Longitude":102.633104,"Month1":7,"Month":"July","Order":153,"Region":"Asia","Season":4,"Show":"No Reservations","State":null,"Title":"Laos","Year":2008},{"Air_Date":1215993600000,"City":"Medell\u00edn","Country":"Colombia","Day":14,"Episode":12,"Latitude":6.244203,"Longitude":-75.581212,"Month1":7,"Month":"July","Order":154,"Region":"South America","Season":4,"Show":"No Reservations","State":null,"Title":"Colombia","Year":2008},{"Air_Date":1215993600000,"City":"Cartagena","Country":"Colombia","Day":14,"Episode":12,"Latitude":10.391049,"Longitude":-75.479426,"Month1":7,"Month":"July","Order":155,"Region":"South America","Season":4,"Show":"No Reservations","State":null,"Title":"Colombia","Year":2008},{"Air_Date":1216598400000,"City":"Jeddah","Country":"Saudi Arabia","Day":21,"Episode":13,"Latitude":21.485811,"Longitude":39.192505,"Month1":7,"Month":"July","Order":156,"Region":"Middle East","Season":4,"Show":"No Reservations","State":null,"Title":"Saudi Arabia","Year":2008},{"Air_Date":1217203200000,"City":"Cabo Polonio","Country":"Uruguay","Day":28,"Episode":14,"Latitude":-34.402302,"Longitude":-53.794941,"Month1":7,"Month":"July","Order":157,"Region":"South America","Season":4,"Show":"No Reservations","State":null,"Title":"Uruguay","Year":2008},{"Air_Date":1217203200000,"City":"Garz\u00f3n","Country":"Uruguay","Day":28,"Episode":14,"Latitude":-34.593287,"Longitude":-54.543036,"Month1":7,"Month":"July","Order":158,"Region":"South America","Season":4,"Show":"No Reservations","State":null,"Title":"Uruguay","Year":2008},{"Air_Date":1217203200000,"City":"Jose Ignacio","Country":"Uruguay","Day":28,"Episode":14,"Latitude":-34.835915,"Longitude":-54.645146,"Month1":7,"Month":"July","Order":159,"Region":"South America","Season":4,"Show":"No Reservations","State":null,"Title":"Uruguay","Year":2008},{"Air_Date":1217203200000,"City":"Lavalleja","Country":"Uruguay","Day":28,"Episode":14,"Latitude":-34.374324,"Longitude":-55.237146,"Month1":7,"Month":"July","Order":160,"Region":"South America","Season":4,"Show":"No Reservations","State":null,"Title":"Uruguay","Year":2008},{"Air_Date":1217203200000,"City":"Maldonado","Country":"Uruguay","Day":28,"Episode":14,"Latitude":-34.905408,"Longitude":-54.950171,"Month1":7,"Month":"July","Order":161,"Region":"South America","Season":4,"Show":"No Reservations","State":null,"Title":"Uruguay","Year":2008},{"Air_Date":1217203200000,"City":"Montevideo","Country":"Uruguay","Day":28,"Episode":14,"Latitude":-34.901113,"Longitude":-56.164531,"Month1":7,"Month":"July","Order":162,"Region":"South America","Season":4,"Show":"No Reservations","State":null,"Title":"Uruguay","Year":2008},{"Air_Date":1217808000000,"City":"Green Valley","Country":"United States","Day":4,"Episode":15,"Latitude":31.854251,"Longitude":-110.993702,"Month1":8,"Month":"August","Order":163,"Region":"North America","Season":4,"Show":"No Reservations","State":"Arizona","Title":"U.S. Southwest","Year":2008},{"Air_Date":1217808000000,"City":"Phoenix","Country":"United States","Day":4,"Episode":15,"Latitude":33.448377,"Longitude":-112.074037,"Month1":8,"Month":"August","Order":164,"Region":"North America","Season":4,"Show":"No Reservations","State":"Arizona","Title":"U.S. Southwest","Year":2008},{"Air_Date":1217808000000,"City":"Indio","Country":"United States","Day":4,"Episode":15,"Latitude":33.720577,"Longitude":-116.215562,"Month1":8,"Month":"August","Order":165,"Region":"North America","Season":4,"Show":"No Reservations","State":"California","Title":"U.S. Southwest","Year":2008},{"Air_Date":1217808000000,"City":"Salton Sea","Country":"United States","Day":4,"Episode":15,"Latitude":33.328618,"Longitude":-115.843412,"Month1":8,"Month":"August","Order":166,"Region":"North America","Season":4,"Show":"No Reservations","State":"California","Title":"U.S. Southwest","Year":2008},{"Air_Date":1217808000000,"City":"Niland","Country":"United States","Day":4,"Episode":15,"Latitude":33.240037,"Longitude":-115.518876,"Month1":8,"Month":"August","Order":167,"Region":"North America","Season":4,"Show":"No Reservations","State":"California","Title":"U.S. Southwest","Year":2008},{"Air_Date":1217808000000,"City":"Palm Springs","Country":"United States","Day":4,"Episode":15,"Latitude":33.830296,"Longitude":-116.545292,"Month1":8,"Month":"August","Order":168,"Region":"North America","Season":4,"Show":"No Reservations","State":"California","Title":"U.S. Southwest","Year":2008},{"Air_Date":1217808000000,"City":"Bombay Beach","Country":"United States","Day":4,"Episode":15,"Latitude":33.350867,"Longitude":-115.729715,"Month1":8,"Month":"August","Order":169,"Region":"North America","Season":4,"Show":"No Reservations","State":"California","Title":"U.S. Southwest","Year":2008},{"Air_Date":1217808000000,"City":"Abiquiu","Country":"United States","Day":4,"Episode":15,"Latitude":36.207241,"Longitude":-106.31864,"Month1":8,"Month":"August","Order":170,"Region":"North America","Season":4,"Show":"No Reservations","State":"New Mexico","Title":"U.S. Southwest","Year":2008},{"Air_Date":1217808000000,"City":"Hatch","Country":"United States","Day":4,"Episode":15,"Latitude":32.665357,"Longitude":-107.153074,"Month1":8,"Month":"August","Order":171,"Region":"North America","Season":4,"Show":"No Reservations","State":"New Mexico","Title":"U.S. Southwest","Year":2008},{"Air_Date":1217808000000,"City":"Amarillo","Country":"United States","Day":4,"Episode":15,"Latitude":35.221997,"Longitude":-101.831297,"Month1":8,"Month":"August","Order":172,"Region":"North America","Season":4,"Show":"No Reservations","State":"Texas","Title":"U.S. Southwest","Year":2008},{"Air_Date":1217808000000,"City":"Woodway","Country":"United States","Day":4,"Episode":15,"Latitude":31.506,"Longitude":-97.205006,"Month1":8,"Month":"August","Order":173,"Region":"North America","Season":4,"Show":"No Reservations","State":"Texas","Title":"U.S. Southwest","Year":2008},{"Air_Date":1217808000000,"City":"Waco","Country":"United States","Day":4,"Episode":15,"Latitude":31.549333,"Longitude":-97.14667,"Month1":8,"Month":"August","Order":174,"Region":"North America","Season":4,"Show":"No Reservations","State":"Texas","Title":"U.S. Southwest","Year":2008},{"Air_Date":1218412800000,"City":"Tokyo","Country":"Japan","Day":11,"Episode":16,"Latitude":35.689487,"Longitude":139.691706,"Month1":8,"Month":"August","Order":175,"Region":"Asia","Season":4,"Show":"No Reservations","State":null,"Title":"Tokyo","Year":2008},{"Air_Date":1219017600000,"City":"Barcelona","Country":"Spain","Day":18,"Episode":17,"Latitude":41.385064,"Longitude":2.173403,"Month1":8,"Month":"August","Order":176,"Region":"Europe","Season":4,"Show":"No Reservations","State":null,"Title":"Spain","Year":2008},{"Air_Date":1219017600000,"City":"Basque Country","Country":"Spain","Day":18,"Episode":17,"Latitude":42.989625,"Longitude":-2.618927,"Month1":8,"Month":"August","Order":177,"Region":"Europe","Season":4,"Show":"No Reservations","State":null,"Title":"Spain","Year":2008},{"Air_Date":1219017600000,"City":"Catalonia","Country":"Spain","Day":18,"Episode":17,"Latitude":41.591159,"Longitude":1.520862,"Month1":8,"Month":"August","Order":178,"Region":"Europe","Season":4,"Show":"No Reservations","State":null,"Title":"Spain","Year":2008},{"Air_Date":1219017600000,"City":"San Sebastian","Country":"Spain","Day":18,"Episode":17,"Latitude":43.318334,"Longitude":-1.981231,"Month1":8,"Month":"August","Order":179,"Region":"Europe","Season":4,"Show":"No Reservations","State":null,"Title":"Spain","Year":2008},{"Air_Date":1219622400000,"City":"Cairo","Country":"Egypt","Day":25,"Episode":18,"Latitude":30.04442,"Longitude":31.235712,"Month1":8,"Month":"August","Order":180,"Region":"Middle East","Season":4,"Show":"No Reservations","State":null,"Title":"Egypt","Year":2008},{"Air_Date":1219622400000,"City":"Luxor","Country":"Egypt","Day":25,"Episode":18,"Latitude":25.687243,"Longitude":32.639636,"Month1":8,"Month":"August","Order":181,"Region":"Middle East","Season":4,"Show":"No Reservations","State":null,"Title":"Egypt","Year":2008},{"Air_Date":1219622400000,"City":"Seds","Country":"Egypt","Day":25,"Episode":18,"Latitude":30.063678,"Longitude":31.219527,"Month1":8,"Month":"August","Order":182,"Region":"Middle East","Season":4,"Show":"No Reservations","State":null,"Title":"Egypt","Year":2008},{"Air_Date":1220227200000,"City":"Manhattan","Country":"United States","Day":1,"Episode":19,"Latitude":40.78306,"Longitude":-73.971249,"Month1":9,"Month":"September","Order":183,"Region":"North America","Season":4,"Show":"No Reservations","State":"New York","Title":"So Long, Summer","Year":2008},{"Air_Date":1224460800000,"City":"Manhattan","Country":"United States","Day":20,"Episode":20,"Latitude":40.78306,"Longitude":-73.971249,"Month1":10,"Month":"October","Order":184,"Region":"North America","Season":4,"Show":"No Reservations","State":"New York","Title":"Special: At the Table with Anthony Bourdain","Year":2008},{"Air_Date":1231113600000,"City":"Mexico City","Country":"Mexico","Day":5,"Episode":1,"Latitude":19.432608,"Longitude":-99.133208,"Month1":1,"Month":"January","Order":185,"Region":"North America","Season":5,"Show":"No Reservations","State":null,"Title":"Mexico","Year":2009},{"Air_Date":1231113600000,"City":"Puebla","Country":"Mexico","Day":5,"Episode":1,"Latitude":19.04144,"Longitude":-98.206273,"Month1":1,"Month":"January","Order":186,"Region":"North America","Season":5,"Show":"No Reservations","State":null,"Title":"Mexico","Year":2009},{"Air_Date":1231718400000,"City":"Venice","Country":"Italy","Day":12,"Episode":2,"Latitude":45.440847,"Longitude":12.315515,"Month1":1,"Month":"January","Order":187,"Region":"Europe","Season":5,"Show":"No Reservations","State":null,"Title":"Venice","Year":2009},{"Air_Date":1232323200000,"City":"Washington","Country":"United States","Day":19,"Episode":3,"Latitude":38.907192,"Longitude":-77.036871,"Month1":1,"Month":"January","Order":189,"Region":"North America","Season":5,"Show":"No Reservations","State":"D.C.","Title":"Washington, D.C.","Year":2009},{"Air_Date":1232928000000,"City":"Azores","Country":"Portugal","Day":26,"Episode":4,"Latitude":37.741249,"Longitude":-25.675594,"Month1":1,"Month":"January","Order":190,"Region":"Europe","Season":5,"Show":"No Reservations","State":null,"Title":"Sao Miguel Island","Year":2009},{"Air_Date":1232928000000,"City":"Azores","Country":"Portugal","Day":26,"Episode":4,"Latitude":38.591255,"Longitude":-28.696475,"Month1":1,"Month":"January","Order":191,"Region":"Europe","Season":5,"Show":"No Reservations","State":null,"Title":"Faial Island","Year":2009},{"Air_Date":1232928000000,"City":"Azores","Country":"Portugal","Day":26,"Episode":4,"Latitude":38.530051,"Longitude":-28.523674,"Month1":1,"Month":"January","Order":192,"Region":"Europe","Season":5,"Show":"No Reservations","State":null,"Title":"Pico Island","Year":2009},{"Air_Date":1232928000000,"City":"Azores","Country":"Portugal","Day":26,"Episode":4,"Latitude":38.568716,"Longitude":-27.841148,"Month1":1,"Month":"January","Order":193,"Region":"Europe","Season":5,"Show":"No Reservations","State":null,"Title":"Sao Jorge","Year":2009},{"Air_Date":1233532800000,"City":"Chicago","Country":"United States","Day":2,"Episode":5,"Latitude":41.878114,"Longitude":-87.629798,"Month1":2,"Month":"February","Order":194,"Region":"North America","Season":5,"Show":"No Reservations","State":"Illinois","Title":"Chicago","Year":2009},{"Air_Date":1234742400000,"City":"Cebu","Country":"Philippines","Day":16,"Episode":7,"Latitude":10.315699,"Longitude":123.885437,"Month1":2,"Month":"February","Order":195,"Region":"Asia","Season":5,"Show":"No Reservations","State":null,"Title":"Philippines","Year":2009},{"Air_Date":1234742400000,"City":"Manila","Country":"Philippines","Day":16,"Episode":7,"Latitude":14.599512,"Longitude":120.984219,"Month1":2,"Month":"February","Order":196,"Region":"Asia","Season":5,"Show":"No Reservations","State":null,"Title":"Philippines","Year":2009},{"Air_Date":1234742400000,"City":"Pampanga","Country":"Philippines","Day":16,"Episode":7,"Latitude":15.079409,"Longitude":120.619989,"Month1":2,"Month":"February","Order":197,"Region":"Asia","Season":5,"Show":"No Reservations","State":null,"Title":"Philippines","Year":2009},{"Air_Date":1235347200000,"City":"Manhattan","Country":"United States","Day":23,"Episode":8,"Latitude":40.78306,"Longitude":-73.971249,"Month1":2,"Month":"February","Order":198,"Region":"North America","Season":5,"Show":"No Reservations","State":"New York","Title":"Disappearing Manhattan","Year":2009},{"Air_Date":1235952000000,"City":"Colombo","Country":"Sri Lanka","Day":2,"Episode":9,"Latitude":6.927079,"Longitude":79.861243,"Month1":3,"Month":"March","Order":199,"Region":"Asia","Season":5,"Show":"No Reservations","State":null,"Title":"Sri Lanka","Year":2009},{"Air_Date":1236556800000,"City":"Ho Chi Minh City","Country":"Vietnam","Day":9,"Episode":10,"Latitude":10.823099,"Longitude":106.629664,"Month1":3,"Month":"March","Order":200,"Region":"Asia","Season":5,"Show":"No Reservations","State":null,"Title":"Vietnam: There's No Place Like Home","Year":2009},{"Air_Date":1236556800000,"City":"H\u1ed9i An","Country":"Vietnam","Day":9,"Episode":10,"Latitude":15.880058,"Longitude":108.338047,"Month1":3,"Month":"March","Order":201,"Region":"Asia","Season":5,"Show":"No Reservations","State":null,"Title":"Vietnam: There's No Place Like Home","Year":2009},{"Air_Date":1247443200000,"City":"Santiago","Country":"Chile","Day":13,"Episode":11,"Latitude":-33.435108,"Longitude":-70.634886,"Month1":7,"Month":"July","Order":202,"Region":"South America","Season":5,"Show":"No Reservations","State":null,"Title":"Chile","Year":2009},{"Air_Date":1247443200000,"City":"Vina del Mar","Country":"Chile","Day":13,"Episode":11,"Latitude":-33.014479,"Longitude":-71.552337,"Month1":7,"Month":"July","Order":203,"Region":"South America","Season":5,"Show":"No Reservations","State":null,"Title":"Chile","Year":2009},{"Air_Date":1247443200000,"City":"Valparaiso","Country":"Chile","Day":13,"Episode":11,"Latitude":-33.038456,"Longitude":-71.62943,"Month1":7,"Month":"July","Order":204,"Region":"South America","Season":5,"Show":"No Reservations","State":null,"Title":"Chile","Year":2009},{"Air_Date":1247443200000,"City":"Cliffs Preserve, Patagonia","Country":"Chile","Day":13,"Episode":11,"Latitude":-41.163458,"Longitude":-73.840668,"Month1":7,"Month":"July","Order":205,"Region":"South America","Season":5,"Show":"No Reservations","State":null,"Title":"Chile","Year":2009},{"Air_Date":1247443200000,"City":"Puerto Montt","Country":"Chile","Day":13,"Episode":11,"Latitude":-41.472233,"Longitude":-72.941289,"Month1":7,"Month":"July","Order":206,"Region":"South America","Season":5,"Show":"No Reservations","State":null,"Title":"Chile","Year":2009},{"Air_Date":1247443200000,"City":"Puerto Varas","Country":"Chile","Day":13,"Episode":11,"Latitude":-41.31755,"Longitude":-72.984477,"Month1":7,"Month":"July","Order":207,"Region":"South America","Season":5,"Show":"No Reservations","State":null,"Title":"Chile","Year":2009},{"Air_Date":1248048000000,"City":"Melbourne","Country":"Australia","Day":20,"Episode":12,"Latitude":-37.813628,"Longitude":144.963058,"Month1":7,"Month":"July","Order":208,"Region":"Oceania","Season":5,"Show":"No Reservations","State":null,"Title":"Australia","Year":2009},{"Air_Date":1248652800000,"City":"Baltimore","Country":"United States","Day":27,"Episode":13,"Latitude":39.290385,"Longitude":-76.612189,"Month1":7,"Month":"July","Order":209,"Region":"North America","Season":5,"Show":"No Reservations","State":"Maryland","Title":"Rust Belt","Year":2009},{"Air_Date":1248652800000,"City":"Detroit","Country":"United States","Day":27,"Episode":13,"Latitude":42.331427,"Longitude":-83.045754,"Month1":7,"Month":"July","Order":210,"Region":"North America","Season":5,"Show":"No Reservations","State":"Michigan","Title":"Rust Belt","Year":2009},{"Air_Date":1248652800000,"City":"Buffalo","Country":"United States","Day":27,"Episode":13,"Latitude":42.886447,"Longitude":-78.878369,"Month1":7,"Month":"July","Order":211,"Region":"North America","Season":5,"Show":"No Reservations","State":"New York","Title":"Rust Belt","Year":2009},{"Air_Date":1249862400000,"City":"San Francisco","Country":"United States","Day":10,"Episode":15,"Latitude":37.774929,"Longitude":-122.419416,"Month1":8,"Month":"August","Order":212,"Region":"North America","Season":5,"Show":"No Reservations","State":"California","Title":"San Francisco","Year":2009},{"Air_Date":1250467200000,"City":"Bangkok","Country":"Thailand","Day":17,"Episode":16,"Latitude":13.756331,"Longitude":100.501765,"Month1":8,"Month":"August","Order":213,"Region":"Asia","Season":5,"Show":"No Reservations","State":null,"Title":"Thailand","Year":2009},{"Air_Date":1250467200000,"City":"Phuket","Country":"Thailand","Day":17,"Episode":16,"Latitude":7.951933,"Longitude":98.338088,"Month1":8,"Month":"August","Order":214,"Region":"Asia","Season":5,"Show":"No Reservations","State":null,"Title":"Thailand","Year":2009},{"Air_Date":1251072000000,"City":"Livingston","Country":"United States","Day":24,"Episode":17,"Latitude":45.661411,"Longitude":-110.559956,"Month1":8,"Month":"August","Order":215,"Region":"North America","Season":5,"Show":"No Reservations","State":"Montana","Title":"Montana","Year":2009},{"Air_Date":1252281600000,"City":"Staten Island","Country":"United States","Day":7,"Episode":19,"Latitude":40.579532,"Longitude":-74.150201,"Month1":9,"Month":"September","Order":216,"Region":"North America","Season":5,"Show":"No Reservations","State":"New York","Title":"New York Outer Boroughs","Year":2009},{"Air_Date":1252281600000,"City":"Queens","Country":"United States","Day":7,"Episode":19,"Latitude":40.728224,"Longitude":-73.794852,"Month1":9,"Month":"September","Order":217,"Region":"North America","Season":5,"Show":"No Reservations","State":"New York","Title":"New York Outer Boroughs","Year":2009},{"Air_Date":1252281600000,"City":"Brooklyn","Country":"United States","Day":7,"Episode":19,"Latitude":40.678178,"Longitude":-73.944158,"Month1":9,"Month":"September","Order":218,"Region":"North America","Season":5,"Show":"No Reservations","State":"New York","Title":"New York Outer Boroughs","Year":2009},{"Air_Date":1252281600000,"City":"The Bronx","Country":"United States","Day":7,"Episode":19,"Latitude":40.844782,"Longitude":-73.864827,"Month1":9,"Month":"September","Order":219,"Region":"North America","Season":5,"Show":"No Reservations","State":"New York","Title":"New York Outer Boroughs","Year":2009},{"Air_Date":1252886400000,"City":"Sardinia","Country":"Italy","Day":14,"Episode":20,"Latitude":40.120875,"Longitude":9.012893,"Month1":9,"Month":"September","Order":220,"Region":"Europe","Season":5,"Show":"No Reservations","State":null,"Title":"Sardinia","Year":2009},{"Air_Date":1263168000000,"City":"Panama City","Country":"Panama","Day":11,"Episode":1,"Latitude":8.982379,"Longitude":-79.51987,"Month1":1,"Month":"January","Order":221,"Region":"Central America","Season":6,"Show":"No Reservations","State":null,"Title":"Panama","Year":2010},{"Air_Date":1263772800000,"City":"Istanbul","Country":"Turkey","Day":18,"Episode":2,"Latitude":41.008238,"Longitude":28.978359,"Month1":1,"Month":"January","Order":222,"Region":"Middle East","Season":6,"Show":"No Reservations","State":null,"Title":"Istanbul","Year":2010},{"Air_Date":1264377600000,"City":"Brittany","Country":"France","Day":25,"Episode":3,"Latitude":48.202047,"Longitude":-2.932644,"Month1":1,"Month":"January","Order":223,"Region":"Europe","Season":6,"Show":"No Reservations","State":null,"Title":"Brittany","Year":2010},{"Air_Date":1264982400000,"City":"Prague","Country":"Czech Republic","Day":1,"Episode":4,"Latitude":50.075538,"Longitude":14.4378,"Month1":2,"Month":"February","Order":224,"Region":"Europe","Season":6,"Show":"No Reservations","State":null,"Title":"Prague","Year":2010},{"Air_Date":1265587200000,"City":"Hudson Valley","Country":"United States","Day":8,"Episode":5,"Latitude":41.920902,"Longitude":-73.961289,"Month1":2,"Month":"February","Order":225,"Region":"North America","Season":6,"Show":"No Reservations","State":"New York","Title":"Hudson Valley, NY","Year":2010},{"Air_Date":1267401600000,"City":"Guayaquil","Country":"Ecuador","Day":1,"Episode":6,"Latitude":-2.170998,"Longitude":-79.922359,"Month1":3,"Month":"March","Order":226,"Region":"South America","Season":6,"Show":"No Reservations","State":null,"Title":"Ecuador","Year":2010},{"Air_Date":1267401600000,"City":"Quito","Country":"Ecuador","Day":1,"Episode":6,"Latitude":-0.180653,"Longitude":-78.467838,"Month1":3,"Month":"March","Order":227,"Region":"South America","Season":6,"Show":"No Reservations","State":null,"Title":"Ecuador","Year":2010},{"Air_Date":1268611200000,"City":"Harbin","Country":"China","Day":15,"Episode":8,"Latitude":45.803775,"Longitude":126.534967,"Month1":3,"Month":"March","Order":228,"Region":"Asia","Season":6,"Show":"No Reservations","State":null,"Title":"Harbin, China","Year":2010},{"Air_Date":1269216000000,"City":"Provence","Country":"France","Day":22,"Episode":9,"Latitude":44.014494,"Longitude":6.211644,"Month1":3,"Month":"March","Order":229,"Region":"Europe","Season":6,"Show":"No Reservations","State":null,"Title":"Provence","Year":2010},{"Air_Date":1269820800000,"City":"Dalat","Country":"Vietnam","Day":29,"Episode":10,"Latitude":11.940419,"Longitude":108.458313,"Month1":3,"Month":"March","Order":230,"Region":"Asia","Season":6,"Show":"No Reservations","State":null,"Title":"Vietnam: Central Highlands","Year":2010},{"Air_Date":1269820800000,"City":"Hanoi","Country":"Vietnam","Day":29,"Episode":10,"Latitude":21.027764,"Longitude":105.83416,"Month1":3,"Month":"March","Order":231,"Region":"Asia","Season":6,"Show":"No Reservations","State":null,"Title":"Vietnam: Central Highlands","Year":2010},{"Air_Date":1271030400000,"City":"Rockland","Country":"United States","Day":12,"Episode":12,"Latitude":44.103691,"Longitude":-69.108929,"Month1":4,"Month":"April","Order":232,"Region":"North America","Season":6,"Show":"No Reservations","State":"Maine","Title":"Maine","Year":2010},{"Air_Date":1271030400000,"City":"Portland","Country":"United States","Day":12,"Episode":12,"Latitude":43.659099,"Longitude":-70.256819,"Month1":4,"Month":"April","Order":233,"Region":"North America","Season":6,"Show":"No Reservations","State":"Maine","Title":"Maine","Year":2010},{"Air_Date":1278288000000,"City":"Petit Saint Vincent","Country":"Saint Vincent and the Grenadines","Day":5,"Episode":14,"Latitude":12.537525,"Longitude":-61.384416,"Month1":7,"Month":"July","Order":234,"Region":"Central America","Season":6,"Show":"No Reservations","State":null,"Title":"Caribbean Island Hopping","Year":2010},{"Air_Date":1278288000000,"City":"Happy Island","Country":"Saint Vincent and the Grenadines","Day":5,"Episode":14,"Latitude":12.593622,"Longitude":-61.409902,"Month1":7,"Month":"July","Order":235,"Region":"Central America","Season":6,"Show":"No Reservations","State":null,"Title":"Caribbean Island Hopping","Year":2010},{"Air_Date":1278288000000,"City":"Union Island","Country":"Saint Vincent and the Grenadines","Day":5,"Episode":14,"Latitude":12.597051,"Longitude":-61.4499,"Month1":7,"Month":"July","Order":236,"Region":"Central America","Season":6,"Show":"No Reservations","State":null,"Title":"Caribbean Island Hopping","Year":2010},{"Air_Date":1278288000000,"City":"Bequai","Country":"Saint Vincent and the Grenadines","Day":5,"Episode":14,"Latitude":13.008055,"Longitude":-61.234677,"Month1":7,"Month":"July","Order":237,"Region":"Central America","Season":6,"Show":"No Reservations","State":null,"Title":"Caribbean Island Hopping","Year":2010},{"Air_Date":1278288000000,"City":"Saint Vincent and the Grenadines","Country":"Saint Vincent and the Grenadines","Day":5,"Episode":14,"Latitude":13.222694,"Longitude":-61.191011,"Month1":7,"Month":"July","Order":238,"Region":"Central America","Season":6,"Show":"No Reservations","State":null,"Title":"Caribbean Island Hopping","Year":2010},{"Air_Date":1278892800000,"City":"Denver","Country":"United States","Day":12,"Episode":15,"Latitude":39.739236,"Longitude":-104.990251,"Month1":7,"Month":"July","Order":239,"Region":"North America","Season":6,"Show":"No Reservations","State":"Colorado","Title":"US Heartland","Year":2010},{"Air_Date":1278892800000,"City":"Livonia","Country":"United States","Day":12,"Episode":15,"Latitude":42.36837,"Longitude":-83.35271,"Month1":7,"Month":"July","Order":240,"Region":"North America","Season":6,"Show":"No Reservations","State":"Michigan","Title":"US Heartland","Year":2010},{"Air_Date":1278892800000,"City":"Minneapolis","Country":"United States","Day":12,"Episode":15,"Latitude":44.977753,"Longitude":-93.265011,"Month1":7,"Month":"July","Order":241,"Region":"North America","Season":6,"Show":"No Reservations","State":"Minnesota","Title":"US Heartland","Year":2010},{"Air_Date":1278892800000,"City":"Columbus","Country":"United States","Day":12,"Episode":15,"Latitude":39.961176,"Longitude":-82.998794,"Month1":7,"Month":"July","Order":242,"Region":"North America","Season":6,"Show":"No Reservations","State":"Ohio","Title":"US Heartland","Year":2010},{"Air_Date":1278892800000,"City":"Austin","Country":"United States","Day":12,"Episode":15,"Latitude":30.267153,"Longitude":-97.743061,"Month1":7,"Month":"July","Order":243,"Region":"North America","Season":6,"Show":"No Reservations","State":"Texas","Title":"US Heartland","Year":2010},{"Air_Date":1278892800000,"City":"Milwaukee","Country":"United States","Day":12,"Episode":15,"Latitude":43.038902,"Longitude":-87.906474,"Month1":7,"Month":"July","Order":244,"Region":"North America","Season":6,"Show":"No Reservations","State":"Wisconsin","Title":"US Heartland","Year":2010},{"Air_Date":1279497600000,"City":"Monrovia","Country":"Liberia","Day":19,"Episode":16,"Latitude":6.290743,"Longitude":-10.760524,"Month1":7,"Month":"July","Order":245,"Region":"Africa","Season":6,"Show":"No Reservations","State":null,"Title":"Liberia","Year":2010},{"Air_Date":1279497600000,"City":"Robertsport","Country":"Liberia","Day":19,"Episode":16,"Latitude":6.750906,"Longitude":-11.367219,"Month1":7,"Month":"July","Order":246,"Region":"Africa","Season":6,"Show":"No Reservations","State":null,"Title":"Liberia","Year":2010},{"Air_Date":1280102400000,"City":"Kerala","Country":"India","Day":26,"Episode":17,"Latitude":10.850516,"Longitude":76.271083,"Month1":7,"Month":"July","Order":247,"Region":"Asia","Season":6,"Show":"No Reservations","State":null,"Title":"Kerala, India","Year":2010},{"Air_Date":1281312000000,"City":"Dubai","Country":"United Arab Emirates","Day":9,"Episode":19,"Latitude":25.204849,"Longitude":55.270783,"Month1":8,"Month":"August","Order":248,"Region":"Middle East","Season":6,"Show":"No Reservations","State":null,"Title":"Dubai","Year":2010},{"Air_Date":1281916800000,"City":"Rome","Country":"Italy","Day":16,"Episode":20,"Latitude":41.902783,"Longitude":12.496366,"Month1":8,"Month":"August","Order":249,"Region":"Europe","Season":6,"Show":"No Reservations","State":null,"Title":"Rome","Year":2010},{"Air_Date":1282521600000,"City":"Beirut","Country":"Lebanon","Day":23,"Episode":21,"Latitude":33.893791,"Longitude":35.501777,"Month1":8,"Month":"August","Order":250,"Region":"Middle East","Season":6,"Show":"No Reservations","State":null,"Title":"Back to Beirut","Year":2010},{"Air_Date":1283731200000,"City":"Paris","Country":"France","Day":6,"Episode":24,"Latitude":48.856614,"Longitude":2.352222,"Month1":9,"Month":"September","Order":251,"Region":"Europe","Season":6,"Show":"No Reservations","State":null,"Title":"100th Episode - Paris","Year":2010},{"Air_Date":1284336000000,"City":"Madrid","Country":"Spain","Day":13,"Episode":25,"Latitude":40.416775,"Longitude":-3.70379,"Month1":9,"Month":"September","Order":252,"Region":"Europe","Season":6,"Show":"No Reservations","State":null,"Title":"Madrid","Year":2010},{"Air_Date":1298851200000,"City":"Port-au-Prince","Country":"Haiti","Day":28,"Episode":1,"Latitude":18.594395,"Longitude":-72.307433,"Month1":2,"Month":"February","Order":253,"Region":"Central America","Season":7,"Show":"No Reservations","State":null,"Title":"Haiti","Year":2011},{"Air_Date":1299456000000,"City":"Kampot","Country":"Cambodia","Day":7,"Episode":2,"Latitude":10.594242,"Longitude":104.164035,"Month1":3,"Month":"March","Order":254,"Region":"Asia","Season":7,"Show":"No Reservations","State":null,"Title":"Cambodia","Year":2011},{"Air_Date":1299456000000,"City":"Kep","Country":"Cambodia","Day":7,"Episode":2,"Latitude":10.536089,"Longitude":104.355916,"Month1":3,"Month":"March","Order":255,"Region":"Asia","Season":7,"Show":"No Reservations","State":null,"Title":"Cambodia","Year":2011},{"Air_Date":1299456000000,"City":"Phnom Penh","Country":"Cambodia","Day":7,"Episode":2,"Latitude":11.556374,"Longitude":104.92821,"Month1":3,"Month":"March","Order":256,"Region":"Asia","Season":7,"Show":"No Reservations","State":null,"Title":"Cambodia","Year":2011},{"Air_Date":1299456000000,"City":"Siem Reap","Country":"Cambodia","Day":7,"Episode":2,"Latitude":13.355009,"Longitude":103.855173,"Month1":3,"Month":"March","Order":257,"Region":"Asia","Season":7,"Show":"No Reservations","State":null,"Title":"Cambodia","Year":2011},{"Air_Date":1300060800000,"City":"Esteli","Country":"Nicaragua","Day":14,"Episode":3,"Latitude":13.085114,"Longitude":-86.36302,"Month1":3,"Month":"March","Order":259,"Region":"Central America","Season":7,"Show":"No Reservations","State":null,"Title":"Nicaragua","Year":2011},{"Air_Date":1300060800000,"City":"Granada","Country":"Nicaragua","Day":14,"Episode":3,"Latitude":11.934407,"Longitude":-85.956001,"Month1":3,"Month":"March","Order":260,"Region":"Central America","Season":7,"Show":"No Reservations","State":null,"Title":"Nicaragua","Year":2011},{"Air_Date":1300060800000,"City":"Managua","Country":"Nicaragua","Day":14,"Episode":3,"Latitude":12.114993,"Longitude":-86.236174,"Month1":3,"Month":"March","Order":258,"Region":"Central America","Season":7,"Show":"No Reservations","State":null,"Title":"Nicaragua","Year":2011},{"Air_Date":1300665600000,"City":"Vienna","Country":"Austria","Day":21,"Episode":4,"Latitude":48.208174,"Longitude":16.373819,"Month1":3,"Month":"March","Order":261,"Region":"Europe","Season":7,"Show":"No Reservations","State":null,"Title":"Vienna","Year":2011},{"Air_Date":1301270400000,"City":"West Plains","Country":"United States","Day":28,"Episode":5,"Latitude":36.728115,"Longitude":-91.852371,"Month1":3,"Month":"March","Order":262,"Region":"North America","Season":7,"Show":"No Reservations","State":"Missouri","Title":"Ozarks","Year":2011},{"Air_Date":1302480000000,"City":"Bel\u00e9m","Country":"Brazil","Day":11,"Episode":6,"Latitude":-1.455729,"Longitude":-48.490179,"Month1":4,"Month":"April","Order":263,"Region":"South America","Season":7,"Show":"No Reservations","State":null,"Title":"Brazil (the Amazon)","Year":2011},{"Air_Date":1303084800000,"City":"Boston","Country":"United States","Day":18,"Episode":7,"Latitude":42.360082,"Longitude":-71.05888,"Month1":4,"Month":"April","Order":264,"Region":"North America","Season":7,"Show":"No Reservations","State":"Massachusetts","Title":"Boston","Year":2011},{"Air_Date":1303689600000,"City":"Sapporo","Country":"Japan","Day":25,"Episode":8,"Latitude":43.062096,"Longitude":141.354376,"Month1":4,"Month":"April","Order":265,"Region":"Asia","Season":7,"Show":"No Reservations","State":null,"Title":"Japan: Hokkaido","Year":2011},{"Air_Date":1310342400000,"City":"Havana","Country":"Cuba","Day":11,"Episode":9,"Latitude":23.113592,"Longitude":-82.366596,"Month1":7,"Month":"July","Order":266,"Region":"Central America","Season":7,"Show":"No Reservations","State":null,"Title":"Cuba","Year":2011},{"Air_Date":1310947200000,"City":"Macau","Country":"China","Day":18,"Episode":10,"Latitude":22.198745,"Longitude":113.543873,"Month1":7,"Month":"July","Order":267,"Region":"Asia","Season":7,"Show":"No Reservations","State":null,"Title":"Macau","Year":2011},{"Air_Date":1311552000000,"City":"Naples","Country":"Italy","Day":25,"Episode":11,"Latitude":40.851775,"Longitude":14.268124,"Month1":7,"Month":"July","Order":268,"Region":"Europe","Season":7,"Show":"No Reservations","State":null,"Title":"Naples","Year":2011},{"Air_Date":1312156800000,"City":"Roses","Country":"Spain","Day":1,"Episode":12,"Latitude":42.26052,"Longitude":3.208099,"Month1":8,"Month":"August","Order":269,"Region":"Europe","Season":7,"Show":"No Reservations","State":null,"Title":"El Bulli","Year":2011},{"Air_Date":1312761600000,"City":"Pioneertown","Country":"United States","Day":8,"Episode":13,"Latitude":34.156442,"Longitude":-116.498645,"Month1":8,"Month":"August","Order":270,"Region":"North America","Season":7,"Show":"No Reservations","State":"California","Title":"US Desert","Year":2011},{"Air_Date":1312761600000,"City":"Joshua Tree","Country":"United States","Day":8,"Episode":13,"Latitude":34.134728,"Longitude":-116.313066,"Month1":8,"Month":"August","Order":271,"Region":"North America","Season":7,"Show":"No Reservations","State":"California","Title":"US Desert","Year":2011},{"Air_Date":1312761600000,"City":"Rancho Mirage","Country":"United States","Day":8,"Episode":13,"Latitude":33.739744,"Longitude":-116.41279,"Month1":8,"Month":"August","Order":272,"Region":"North America","Season":7,"Show":"No Reservations","State":"California","Title":"US Desert","Year":2011},{"Air_Date":1312761600000,"City":"Coachella","Country":"United States","Day":8,"Episode":13,"Latitude":33.6803,"Longitude":-116.173894,"Month1":8,"Month":"August","Order":273,"Region":"North America","Season":7,"Show":"No Reservations","State":"California","Title":"US Desert","Year":2011},{"Air_Date":1313366400000,"City":"Chernobyl","Country":"Ukraine","Day":15,"Episode":14,"Latitude":51.276303,"Longitude":30.221899,"Month1":8,"Month":"August","Order":274,"Region":"Europe","Season":7,"Show":"No Reservations","State":null,"Title":"Ukraine","Year":2011},{"Air_Date":1313366400000,"City":"Crimea","Country":"Ukraine","Day":15,"Episode":14,"Latitude":44.952117,"Longitude":34.102417,"Month1":8,"Month":"August","Order":275,"Region":"Europe","Season":7,"Show":"No Reservations","State":null,"Title":"Ukraine","Year":2011},{"Air_Date":1313971200000,"City":"Chester","Country":"United States","Day":22,"Episode":15,"Latitude":37.356816,"Longitude":-77.44165,"Month1":8,"Month":"August","Order":276,"Region":"North America","Season":7,"Show":"No Reservations","State":"Virginia","Title":"Kurdistan","Year":2011},{"Air_Date":1313971200000,"City":"Soran, Iraqi Kurdistan","Country":"Iraq","Day":22,"Episode":15,"Latitude":36.654696,"Longitude":44.537808,"Month1":8,"Month":"August","Order":277,"Region":"Middle East","Season":7,"Show":"No Reservations","State":null,"Title":"Kurdistan","Year":2011},{"Air_Date":1313971200000,"City":"Erbil, Iraqi Kurdistan","Country":"Iraq","Day":22,"Episode":15,"Latitude":36.206293,"Longitude":44.008887,"Month1":8,"Month":"August","Order":278,"Region":"Middle East","Season":7,"Show":"No Reservations","State":null,"Title":"Kurdistan","Year":2011},{"Air_Date":1313971200000,"City":"Derik, Turkish Kurdistan","Country":"Turkey","Day":22,"Episode":15,"Latitude":37.364657,"Longitude":40.267937,"Month1":8,"Month":"August","Order":279,"Region":"Middle East","Season":7,"Show":"No Reservations","State":null,"Title":"Kurdistan","Year":2011},{"Air_Date":1314576000000,"City":"New Orleans","Country":"United States","Day":29,"Episode":16,"Latitude":29.951066,"Longitude":-90.071532,"Month1":8,"Month":"August","Order":280,"Region":"North America","Season":7,"Show":"No Reservations","State":"Louisiana","Title":"Cajun Country","Year":2011},{"Air_Date":1314576000000,"City":"Breaux Bridge","Country":"United States","Day":29,"Episode":16,"Latitude":30.273532,"Longitude":-91.899284,"Month1":8,"Month":"August","Order":281,"Region":"North America","Season":7,"Show":"No Reservations","State":"Louisiana","Title":"Cajun Country","Year":2011},{"Air_Date":1314576000000,"City":"Metairie","Country":"United States","Day":29,"Episode":16,"Latitude":29.984092,"Longitude":-90.152852,"Month1":8,"Month":"August","Order":282,"Region":"North America","Season":7,"Show":"No Reservations","State":"Louisiana","Title":"Cajun Country","Year":2011},{"Air_Date":1321833600000,"City":"Singapore","Country":"Singapore","Day":21,"Episode":1,"Latitude":1.352083,"Longitude":103.819836,"Month1":11,"Month":"November","Order":283,"Region":"Asia","Season":1,"Show":"The Layover","State":null,"Title":"Singapore","Year":2011},{"Air_Date":1322438400000,"City":"New York","Country":"United States","Day":28,"Episode":2,"Latitude":40.712775,"Longitude":-74.005973,"Month1":11,"Month":"November","Order":284,"Region":"North America","Season":1,"Show":"The Layover","State":"New York","Title":"New York","Year":2011},{"Air_Date":1323043200000,"City":"Rome","Country":"Italy","Day":5,"Episode":3,"Latitude":41.902783,"Longitude":12.496366,"Month1":12,"Month":"December","Order":285,"Region":"Europe","Season":1,"Show":"The Layover","State":null,"Title":"Rome","Year":2011},{"Air_Date":1323648000000,"City":"Miami","Country":"United States","Day":12,"Episode":4,"Latitude":25.76168,"Longitude":-80.19179,"Month1":12,"Month":"December","Order":286,"Region":"North America","Season":1,"Show":"The Layover","State":"Florida","Title":"Miami","Year":2011},{"Air_Date":1324252800000,"City":"Hong Kong","Country":"China","Day":19,"Episode":5,"Latitude":22.396428,"Longitude":114.109497,"Month1":12,"Month":"December","Order":287,"Region":"Asia","Season":1,"Show":"The Layover","State":null,"Title":"Hong Kong","Year":2011},{"Air_Date":1324857600000,"City":"Montreal","Country":"Canada","Day":26,"Episode":6,"Latitude":45.501689,"Longitude":-73.567256,"Month1":12,"Month":"December","Order":288,"Region":"North America","Season":1,"Show":"The Layover","State":null,"Title":"Montreal","Year":2011},{"Air_Date":1325462400000,"City":"Amsterdam","Country":"Netherlands","Day":2,"Episode":7,"Latitude":52.370216,"Longitude":4.895168,"Month1":1,"Month":"January","Order":289,"Region":"Europe","Season":1,"Show":"The Layover","State":null,"Title":"Amsterdam","Year":2012},{"Air_Date":1326067200000,"City":"San Francisco","Country":"United States","Day":9,"Episode":8,"Latitude":37.774929,"Longitude":-122.419416,"Month1":1,"Month":"January","Order":290,"Region":"North America","Season":1,"Show":"The Layover","State":"California","Title":"San Francisco","Year":2012},{"Air_Date":1326672000000,"City":"London","Country":"United Kingdom","Day":16,"Episode":9,"Latitude":51.507351,"Longitude":-0.127758,"Month1":1,"Month":"January","Order":291,"Region":"Europe","Season":1,"Show":"The Layover","State":null,"Title":"London","Year":2012},{"Air_Date":1327276800000,"City":"Los Angeles","Country":"United States","Day":23,"Episode":10,"Latitude":34.052234,"Longitude":-118.243685,"Month1":1,"Month":"January","Order":292,"Region":"North America","Season":1,"Show":"The Layover","State":"California","Title":"Los Angeles","Year":2012},{"Air_Date":1333929600000,"City":"Beira","Country":"Mozambique","Day":9,"Episode":1,"Latitude":-19.831595,"Longitude":34.837018,"Month1":4,"Month":"April","Order":293,"Region":"Africa","Season":8,"Show":"No Reservations","State":null,"Title":"Mozambique","Year":2012},{"Air_Date":1333929600000,"City":"Maputo","Country":"Mozambique","Day":9,"Episode":1,"Latitude":-25.969248,"Longitude":32.573175,"Month1":4,"Month":"April","Order":294,"Region":"Africa","Season":8,"Show":"No Reservations","State":null,"Title":"Mozambique","Year":2012},{"Air_Date":1333929600000,"City":"Mozambique Island","Country":"Mozambique","Day":9,"Episode":1,"Latitude":-15.036449,"Longitude":40.732331,"Month1":4,"Month":"April","Order":295,"Region":"Africa","Season":8,"Show":"No Reservations","State":null,"Title":"Mozambique","Year":2012},{"Air_Date":1334534400000,"City":"Kansas City","Country":"United States","Day":16,"Episode":2,"Latitude":39.114053,"Longitude":-94.627464,"Month1":4,"Month":"April","Order":296,"Region":"North America","Season":8,"Show":"No Reservations","State":"Kansas","Title":"Kansas City","Year":2012},{"Air_Date":1334534400000,"City":"Kansas City","Country":"United States","Day":16,"Episode":2,"Latitude":39.099727,"Longitude":-94.578567,"Month1":4,"Month":"April","Order":297,"Region":"North America","Season":8,"Show":"No Reservations","State":"Missouri","Title":"Kansas City","Year":2012},{"Air_Date":1335139200000,"City":"Motovun","Country":"Croatia","Day":23,"Episode":3,"Latitude":45.335951,"Longitude":13.827861,"Month1":4,"Month":"April","Order":298,"Region":"Europe","Season":8,"Show":"No Reservations","State":null,"Title":"Croatian Coast","Year":2012},{"Air_Date":1335139200000,"City":"Skradin","Country":"Croatia","Day":23,"Episode":3,"Latitude":43.817637,"Longitude":15.923255,"Month1":4,"Month":"April","Order":299,"Region":"Europe","Season":8,"Show":"No Reservations","State":null,"Title":"Croatian Coast","Year":2012},{"Air_Date":1335139200000,"City":"Zadar","Country":"Croatia","Day":23,"Episode":3,"Latitude":44.119371,"Longitude":15.231365,"Month1":4,"Month":"April","Order":300,"Region":"Europe","Season":8,"Show":"No Reservations","State":null,"Title":"Croatian Coast","Year":2012},{"Air_Date":1335744000000,"City":"Lisbon","Country":"Portugal","Day":30,"Episode":4,"Latitude":38.722252,"Longitude":-9.139337,"Month1":4,"Month":"April","Order":301,"Region":"Europe","Season":8,"Show":"No Reservations","State":null,"Title":"Lisbon","Year":2012},{"Air_Date":1336348800000,"City":"Hakusan City","Country":"Japan","Day":7,"Episode":5,"Latitude":36.514427,"Longitude":136.565892,"Month1":5,"Month":"May","Order":302,"Region":"Asia","Season":8,"Show":"No Reservations","State":null,"Title":"Japan: Cook It Raw","Year":2012},{"Air_Date":1336348800000,"City":"Kaga","Country":"Japan","Day":7,"Episode":5,"Latitude":36.302624,"Longitude":136.314627,"Month1":5,"Month":"May","Order":303,"Region":"Asia","Season":8,"Show":"No Reservations","State":null,"Title":"Japan: Cook It Raw","Year":2012},{"Air_Date":1336348800000,"City":"Kanazawa","Country":"Japan","Day":7,"Episode":5,"Latitude":36.561325,"Longitude":136.656205,"Month1":5,"Month":"May","Order":304,"Region":"Asia","Season":8,"Show":"No Reservations","State":null,"Title":"Japan: Cook It Raw","Year":2012},{"Air_Date":1336348800000,"City":"Tokyo","Country":"Japan","Day":7,"Episode":5,"Latitude":35.689487,"Longitude":139.691706,"Month1":5,"Month":"May","Order":305,"Region":"Asia","Season":8,"Show":"No Reservations","State":null,"Title":"Japan: Cook It Raw","Year":2012},{"Air_Date":1336953600000,"City":"Helsinki","Country":"Finland","Day":14,"Episode":6,"Latitude":60.169856,"Longitude":24.938379,"Month1":5,"Month":"May","Order":306,"Region":"Europe","Season":8,"Show":"No Reservations","State":null,"Title":"Finland","Year":2012},{"Air_Date":1338163200000,"City":"Ensenada","Country":"Mexico","Day":28,"Episode":7,"Latitude":31.866743,"Longitude":-116.596371,"Month1":5,"Month":"May","Order":307,"Region":"North America","Season":8,"Show":"No Reservations","State":null,"Title":"Baja","Year":2012},{"Air_Date":1338163200000,"City":"Tijuana","Country":"Mexico","Day":28,"Episode":7,"Latitude":32.514947,"Longitude":-117.038247,"Month1":5,"Month":"May","Order":308,"Region":"North America","Season":8,"Show":"No Reservations","State":null,"Title":"Baja","Year":2012},{"Air_Date":1338768000000,"City":"Penang","Country":"Malaysia","Day":4,"Episode":8,"Latitude":5.416393,"Longitude":100.332679,"Month1":6,"Month":"June","Order":309,"Region":"Asia","Season":8,"Show":"No Reservations","State":null,"Title":"Penang","Year":2012},{"Air_Date":1346630400000,"City":"Austin","Country":"United States","Day":3,"Episode":1,"Latitude":30.267153,"Longitude":-97.743061,"Month1":9,"Month":"September","Order":310,"Region":"North America","Season":9,"Show":"No Reservations","State":"Texas","Title":"Austin","Year":2012},{"Air_Date":1347235200000,"City":"Sydney","Country":"Australia","Day":10,"Episode":2,"Latitude":-33.86882,"Longitude":151.209296,"Month1":9,"Month":"September","Order":311,"Region":"Oceania","Season":9,"Show":"No Reservations","State":null,"Title":"Sydney","Year":2012},{"Air_Date":1348444800000,"City":"Bologna","Country":"Italy","Day":24,"Episode":4,"Latitude":44.494887,"Longitude":11.342616,"Month1":9,"Month":"September","Order":312,"Region":"Europe","Season":9,"Show":"No Reservations","State":null,"Title":"Emilia Romagna","Year":2012},{"Air_Date":1348444800000,"City":"Modena","Country":"Italy","Day":24,"Episode":4,"Latitude":44.647128,"Longitude":10.925227,"Month1":9,"Month":"September","Order":313,"Region":"Europe","Season":9,"Show":"No Reservations","State":null,"Title":"Emilia Romagna","Year":2012},{"Air_Date":1348444800000,"City":"Polesine Parmense","Country":"Italy","Day":24,"Episode":4,"Latitude":45.020027,"Longitude":10.088044,"Month1":9,"Month":"September","Order":314,"Region":"Europe","Season":9,"Show":"No Reservations","State":null,"Title":"Emilia Romagna","Year":2012},{"Air_Date":1349049600000,"City":"Auxerre","Country":"France","Day":1,"Episode":5,"Latitude":47.798202,"Longitude":3.573781,"Month1":10,"Month":"October","Order":315,"Region":"Europe","Season":9,"Show":"No Reservations","State":null,"Title":"Burgundy","Year":2012},{"Air_Date":1349049600000,"City":"Beaune","Country":"France","Day":1,"Episode":5,"Latitude":47.02603,"Longitude":4.840004,"Month1":10,"Month":"October","Order":316,"Region":"Europe","Season":9,"Show":"No Reservations","State":null,"Title":"Burgundy","Year":2012},{"Air_Date":1349049600000,"City":"Morey-Saint-Denis","Country":"France","Day":1,"Episode":5,"Latitude":47.195673,"Longitude":4.962496,"Month1":10,"Month":"October","Order":317,"Region":"Europe","Season":9,"Show":"No Reservations","State":null,"Title":"Burgundy","Year":2012},{"Air_Date":1349049600000,"City":"Noyers","Country":"France","Day":1,"Episode":5,"Latitude":47.695641,"Longitude":3.995663,"Month1":10,"Month":"October","Order":318,"Region":"Europe","Season":9,"Show":"No Reservations","State":null,"Title":"Burgundy","Year":2012},{"Air_Date":1349049600000,"City":"Nuits-Saint-Georges","Country":"France","Day":1,"Episode":5,"Latitude":47.137985,"Longitude":4.95032,"Month1":10,"Month":"October","Order":319,"Region":"Europe","Season":9,"Show":"No Reservations","State":null,"Title":"Burgundy","Year":2012},{"Air_Date":1349049600000,"City":"Pacy-sur-Arman\u00e7on","Country":"France","Day":1,"Episode":5,"Latitude":47.777121,"Longitude":4.094861,"Month1":10,"Month":"October","Order":320,"Region":"Europe","Season":9,"Show":"No Reservations","State":null,"Title":"Burgundy","Year":2012},{"Air_Date":1349049600000,"City":"Saint-P\u00e8re","Country":"France","Day":1,"Episode":5,"Latitude":47.459395,"Longitude":3.765224,"Month1":10,"Month":"October","Order":321,"Region":"Europe","Season":9,"Show":"No Reservations","State":null,"Title":"Burgundy","Year":2012},{"Air_Date":1349049600000,"City":"V\u00e9zelay","Country":"France","Day":1,"Episode":5,"Latitude":47.465674,"Longitude":3.746143,"Month1":10,"Month":"October","Order":322,"Region":"Europe","Season":9,"Show":"No Reservations","State":null,"Title":"Burgundy","Year":2012},{"Air_Date":1349049600000,"City":"Yonne","Country":"France","Day":1,"Episode":5,"Latitude":47.865273,"Longitude":3.607982,"Month1":10,"Month":"October","Order":323,"Region":"Europe","Season":9,"Show":"No Reservations","State":null,"Title":"Burgundy","Year":2012},{"Air_Date":1350259200000,"City":"Rio de Janeiro","Country":"Brazil","Day":15,"Episode":7,"Latitude":-22.906847,"Longitude":-43.172896,"Month1":10,"Month":"October","Order":324,"Region":"South America","Season":9,"Show":"No Reservations","State":null,"Title":"Rio","Year":2012},{"Air_Date":1351468800000,"City":"Playa Rincon","Country":"Dominican Republic","Day":29,"Episode":9,"Latitude":19.289455,"Longitude":-69.249945,"Month1":10,"Month":"October","Order":325,"Region":"Central America","Season":9,"Show":"No Reservations","State":null,"Title":"Dominican Republic","Year":2012},{"Air_Date":1351468800000,"City":"Saman\u00e1","Country":"Dominican Republic","Day":29,"Episode":9,"Latitude":19.203076,"Longitude":-69.338766,"Month1":10,"Month":"October","Order":326,"Region":"Central America","Season":9,"Show":"No Reservations","State":null,"Title":"Dominican Republic","Year":2012},{"Air_Date":1351468800000,"City":"Santo Domingo","Country":"Dominican Republic","Day":29,"Episode":9,"Latitude":18.486058,"Longitude":-69.931212,"Month1":10,"Month":"October","Order":327,"Region":"Central America","Season":9,"Show":"No Reservations","State":null,"Title":"Dominican Republic","Year":2012},{"Air_Date":1352073600000,"City":"Brooklyn","Country":"United States","Day":5,"Episode":10,"Latitude":40.678178,"Longitude":-73.944158,"Month1":11,"Month":"November","Order":328,"Region":"North America","Season":9,"Show":"No Reservations","State":"New York","Title":"Brooklyn","Year":2012},{"Air_Date":1353283200000,"City":"Chicago","Country":"United States","Day":19,"Episode":1,"Latitude":41.878114,"Longitude":-87.629798,"Month1":11,"Month":"November","Order":329,"Region":"North America","Season":2,"Show":"The Layover","State":null,"Title":"Chicago","Year":2012},{"Air_Date":1353888000000,"City":"Paris","Country":"France","Day":26,"Episode":2,"Latitude":48.856614,"Longitude":2.352222,"Month1":11,"Month":"November","Order":330,"Region":"Europe","Season":2,"Show":"The Layover","State":null,"Title":"Paris","Year":2012},{"Air_Date":1354492800000,"City":"Philadelphia","Country":"United States","Day":3,"Episode":3,"Latitude":39.952584,"Longitude":-75.165222,"Month1":12,"Month":"December","Order":331,"Region":"North America","Season":2,"Show":"The Layover","State":"Pennsylvania","Title":"Philadelphia","Year":2012},{"Air_Date":1355097600000,"City":"S\u00e3o Paulo","Country":"Brazil","Day":10,"Episode":4,"Latitude":-23.55052,"Longitude":-46.633309,"Month1":12,"Month":"December","Order":332,"Region":"South America","Season":2,"Show":"The Layover","State":null,"Title":"S\u00e3o Paulo","Year":2012},{"Air_Date":1355702400000,"City":"Toronto","Country":"Canada","Day":17,"Episode":5,"Latitude":43.653226,"Longitude":-79.383184,"Month1":12,"Month":"December","Order":333,"Region":"North America","Season":2,"Show":"The Layover","State":null,"Title":"Toronto","Year":2012},{"Air_Date":1357516800000,"City":"Dublin","Country":"United Kingdom","Day":7,"Episode":6,"Latitude":53.349805,"Longitude":-6.26031,"Month1":1,"Month":"January","Order":334,"Region":"Europe","Season":2,"Show":"The Layover","State":null,"Title":"Dublin","Year":2013},{"Air_Date":1358121600000,"City":"Atlanta","Country":"United States","Day":14,"Episode":7,"Latitude":33.748995,"Longitude":-84.387982,"Month1":1,"Month":"January","Order":335,"Region":"North America","Season":2,"Show":"The Layover","State":"Georgia","Title":"Atlanta","Year":2013},{"Air_Date":1358726400000,"City":"Taipei","Country":"Taiwan","Day":21,"Episode":8,"Latitude":25.032969,"Longitude":121.565418,"Month1":1,"Month":"January","Order":336,"Region":"Asia","Season":2,"Show":"The Layover","State":null,"Title":"Taipei","Year":2013},{"Air_Date":1359331200000,"City":"New Orleans","Country":"United States","Day":28,"Episode":9,"Latitude":29.951066,"Longitude":-90.071532,"Month1":1,"Month":"January","Order":337,"Region":"North America","Season":2,"Show":"The Layover","State":"Louisiana","Title":"New Orleans","Year":2013},{"Air_Date":1359936000000,"City":"Seattle","Country":"United States","Day":4,"Episode":10,"Latitude":47.606209,"Longitude":-122.332071,"Month1":2,"Month":"February","Order":338,"Region":"North America","Season":2,"Show":"The Layover","State":"Washington","Title":"Seattle","Year":2013},{"Air_Date":1365897600000,"City":"Bagan","Country":"Myanmar","Day":14,"Episode":1,"Latitude":21.171727,"Longitude":94.858546,"Month1":4,"Month":"April","Order":339,"Region":"Asia","Season":1,"Show":"Parts Unknown","State":null,"Title":"Myanmar","Year":2013},{"Air_Date":1365897600000,"City":"Yangon","Country":"Myanmar","Day":14,"Episode":1,"Latitude":16.866069,"Longitude":96.195132,"Month1":4,"Month":"April","Order":340,"Region":"Asia","Season":1,"Show":"Parts Unknown","State":null,"Title":"Myanmar","Year":2013},{"Air_Date":1366502400000,"City":"Koreatown","Country":"United States","Day":21,"Episode":2,"Latitude":34.060988,"Longitude":-118.302358,"Month1":4,"Month":"April","Order":341,"Region":"North America","Season":1,"Show":"Parts Unknown","State":"California","Title":"Koreatown, Los Angeles","Year":2013},{"Air_Date":1366502400000,"City":"Venice","Country":"United States","Day":21,"Episode":2,"Latitude":33.985047,"Longitude":-118.469483,"Month1":4,"Month":"April","Order":342,"Region":"North America","Season":1,"Show":"Parts Unknown","State":"California","Title":"Koreatown, Los Angeles","Year":2013},{"Air_Date":1366502400000,"City":"Los Feliz","Country":"United States","Day":21,"Episode":2,"Latitude":34.106331,"Longitude":-118.28482,"Month1":4,"Month":"April","Order":343,"Region":"North America","Season":1,"Show":"Parts Unknown","State":"California","Title":"Koreatown, Los Angeles","Year":2013},{"Air_Date":1366502400000,"City":"Whittier Boulevard","Country":"United States","Day":21,"Episode":2,"Latitude":34.020798,"Longitude":-118.159085,"Month1":4,"Month":"April","Order":344,"Region":"North America","Season":1,"Show":"Parts Unknown","State":"California","Title":"Koreatown, Los Angeles","Year":2013},{"Air_Date":1367107200000,"City":"Bogot\u00e1","Country":"Colombia","Day":28,"Episode":3,"Latitude":4.710989,"Longitude":-74.072092,"Month1":4,"Month":"April","Order":345,"Region":"South America","Season":1,"Show":"Parts Unknown","State":null,"Title":"Colombia","Year":2013},{"Air_Date":1367107200000,"City":"Guaviare","Country":"Colombia","Day":28,"Episode":3,"Latitude":2.043924,"Longitude":-72.331113,"Month1":4,"Month":"April","Order":346,"Region":"South America","Season":1,"Show":"Parts Unknown","State":null,"Title":"Colombia","Year":2013},{"Air_Date":1367107200000,"City":"La Guajira","Country":"Colombia","Day":28,"Episode":3,"Latitude":11.354774,"Longitude":-72.520483,"Month1":4,"Month":"April","Order":347,"Region":"South America","Season":1,"Show":"Parts Unknown","State":null,"Title":"Colombia","Year":2013},{"Air_Date":1367107200000,"City":"Meta","Country":"Colombia","Day":28,"Episode":3,"Latitude":3.27199,"Longitude":-73.087749,"Month1":4,"Month":"April","Order":348,"Region":"South America","Season":1,"Show":"Parts Unknown","State":null,"Title":"Colombia","Year":2013},{"Air_Date":1367107200000,"City":"Valle del Cauca","Country":"Colombia","Day":28,"Episode":3,"Latitude":3.800889,"Longitude":-76.641271,"Month1":4,"Month":"April","Order":349,"Region":"South America","Season":1,"Show":"Parts Unknown","State":null,"Title":"Colombia","Year":2013},{"Air_Date":1367712000000,"City":"Montreal","Country":"Canada","Day":5,"Episode":4,"Latitude":45.501689,"Longitude":-73.567256,"Month1":5,"Month":"May","Order":350,"Region":"North America","Season":1,"Show":"Parts Unknown","State":null,"Title":"Quebec","Year":2013},{"Air_Date":1367712000000,"City":"Quebec City","Country":"Canada","Day":5,"Episode":4,"Latitude":46.813878,"Longitude":-71.207981,"Month1":5,"Month":"May","Order":351,"Region":"North America","Season":1,"Show":"Parts Unknown","State":null,"Title":"Quebec","Year":2013},{"Air_Date":1368316800000,"City":"Tangier","Country":"Morocco","Day":12,"Episode":5,"Latitude":35.759465,"Longitude":-5.833954,"Month1":5,"Month":"May","Order":352,"Region":"Africa","Season":1,"Show":"Parts Unknown","State":null,"Title":"Morocco (Tangier)","Year":2013},{"Air_Date":1368921600000,"City":"Al Khums","Country":"Libya","Day":19,"Episode":6,"Latitude":32.650951,"Longitude":14.267899,"Month1":5,"Month":"May","Order":353,"Region":"Africa","Season":1,"Show":"Parts Unknown","State":null,"Title":"Libya","Year":2013},{"Air_Date":1368921600000,"City":"Misrata","Country":"Libya","Day":19,"Episode":6,"Latitude":32.325588,"Longitude":15.099256,"Month1":5,"Month":"May","Order":354,"Region":"Africa","Season":1,"Show":"Parts Unknown","State":null,"Title":"Libya","Year":2013},{"Air_Date":1368921600000,"City":"Murqub","Country":"Libya","Day":19,"Episode":6,"Latitude":32.459968,"Longitude":14.100133,"Month1":5,"Month":"May","Order":355,"Region":"Africa","Season":1,"Show":"Parts Unknown","State":null,"Title":"Libya","Year":2013},{"Air_Date":1368921600000,"City":"Tripoli","Country":"Libya","Day":19,"Episode":6,"Latitude":35.75982,"Longitude":-5.834237,"Month1":5,"Month":"May","Order":356,"Region":"Africa","Season":1,"Show":"Parts Unknown","State":null,"Title":"Libya","Year":2013},{"Air_Date":1370131200000,"City":"Chiclayo","Country":"Peru","Day":2,"Episode":7,"Latitude":-6.776597,"Longitude":-79.844298,"Month1":6,"Month":"June","Order":357,"Region":"South America","Season":1,"Show":"Parts Unknown","State":null,"Title":"Peru","Year":2013},{"Air_Date":1370131200000,"City":"Lima","Country":"Peru","Day":2,"Episode":7,"Latitude":-12.046373,"Longitude":-77.042754,"Month1":6,"Month":"June","Order":358,"Region":"South America","Season":1,"Show":"Parts Unknown","State":null,"Title":"Peru","Year":2013},{"Air_Date":1370736000000,"City":"Goma","Country":"Democratic Republic of the Congo","Day":9,"Episode":8,"Latitude":-1.658501,"Longitude":29.220455,"Month1":6,"Month":"June","Order":359,"Region":"Africa","Season":1,"Show":"Parts Unknown","State":null,"Title":"Congo","Year":2013},{"Air_Date":1370736000000,"City":"Kisangani","Country":"Democratic Republic of the Congo","Day":9,"Episode":8,"Latitude":0.51853,"Longitude":25.200773,"Month1":6,"Month":"June","Order":360,"Region":"Africa","Season":1,"Show":"Parts Unknown","State":null,"Title":"Congo","Year":2013},{"Air_Date":1379203200000,"City":"Aida","Country":"Palestine","Day":15,"Episode":2,"Latitude":31.94657,"Longitude":35.302723,"Month1":9,"Month":"September","Order":361,"Region":"Middle East","Season":2,"Show":"Parts Unknown","State":null,"Title":"Jerusalem","Year":2013},{"Air_Date":1379203200000,"City":"Bethlehem","Country":"Palestine","Day":15,"Episode":2,"Latitude":31.705382,"Longitude":35.202442,"Month1":9,"Month":"September","Order":362,"Region":"Middle East","Season":2,"Show":"Parts Unknown","State":null,"Title":"Jerusalem","Year":2013},{"Air_Date":1379203200000,"City":"Bror Hayil","Country":"Israel","Day":15,"Episode":2,"Latitude":31.556985,"Longitude":34.646547,"Month1":9,"Month":"September","Order":363,"Region":"Middle East","Season":2,"Show":"Parts Unknown","State":null,"Title":"Jerusalem","Year":2013},{"Air_Date":1379203200000,"City":"Ein Rafa","Country":"Israel","Day":15,"Episode":2,"Latitude":31.790605,"Longitude":35.116514,"Month1":9,"Month":"September","Order":364,"Region":"Middle East","Season":2,"Show":"Parts Unknown","State":null,"Title":"Jerusalem","Year":2013},{"Air_Date":1379203200000,"City":"Gaza","Country":"Palestine","Day":15,"Episode":2,"Latitude":31.354676,"Longitude":34.308826,"Month1":9,"Month":"September","Order":365,"Region":"Middle East","Season":2,"Show":"Parts Unknown","State":null,"Title":"Jerusalem","Year":2013},{"Air_Date":1379203200000,"City":"Jerusalem","Country":"Israel","Day":15,"Episode":2,"Latitude":31.768319,"Longitude":35.21371,"Month1":9,"Month":"September","Order":366,"Region":"Middle East","Season":2,"Show":"Parts Unknown","State":null,"Title":"Jerusalem","Year":2013},{"Air_Date":1379203200000,"City":"Ramallah","Country":"Palestine","Day":15,"Episode":2,"Latitude":31.903764,"Longitude":35.203418,"Month1":9,"Month":"September","Order":367,"Region":"Middle East","Season":2,"Show":"Parts Unknown","State":null,"Title":"Jerusalem","Year":2013},{"Air_Date":1379808000000,"City":"Granada","Country":"Spain","Day":22,"Episode":3,"Latitude":37.177336,"Longitude":-3.598557,"Month1":9,"Month":"September","Order":368,"Region":"Europe","Season":2,"Show":"Parts Unknown","State":null,"Title":"Spain","Year":2013},{"Air_Date":1380412800000,"City":"Santa Fe","Country":"United States","Day":29,"Episode":4,"Latitude":35.686975,"Longitude":-105.937799,"Month1":9,"Month":"September","Order":369,"Region":"North America","Season":2,"Show":"Parts Unknown","State":"New Mexico","Title":"New Mexico","Year":2013},{"Air_Date":1380412800000,"City":"Zia Pueblo","Country":"United States","Day":29,"Episode":4,"Latitude":35.506976,"Longitude":-106.720311,"Month1":9,"Month":"September","Order":370,"Region":"North America","Season":2,"Show":"Parts Unknown","State":"New Mexico","Title":"New Mexico","Year":2013},{"Air_Date":1380412800000,"City":"Alberquerque","Country":"United States","Day":29,"Episode":4,"Latitude":35.084386,"Longitude":-106.650422,"Month1":9,"Month":"September","Order":371,"Region":"North America","Season":2,"Show":"Parts Unknown","State":"New Mexico","Title":"New Mexico","Year":2013},{"Air_Date":1381017600000,"City":"Copenhagen","Country":"Denmark","Day":6,"Episode":5,"Latitude":55.676097,"Longitude":12.568337,"Month1":10,"Month":"October","Order":372,"Region":"Europe","Season":2,"Show":"Parts Unknown","State":null,"Title":"Copenhagen","Year":2013},{"Air_Date":1381622400000,"City":"Sicily","Country":"Italy","Day":13,"Episode":6,"Latitude":37.599994,"Longitude":14.015356,"Month1":10,"Month":"October","Order":373,"Region":"Europe","Season":2,"Show":"Parts Unknown","State":null,"Title":"Sicily","Year":2013},{"Air_Date":1382227200000,"City":"Johannesburg","Country":"South Africa","Day":20,"Episode":7,"Latitude":-26.204103,"Longitude":28.047305,"Month1":10,"Month":"October","Order":374,"Region":"Africa","Season":2,"Show":"Parts Unknown","State":null,"Title":"South Africa","Year":2013},{"Air_Date":1383436800000,"City":"Tokyo","Country":"Japan","Day":3,"Episode":8,"Latitude":35.689487,"Longitude":139.691706,"Month1":11,"Month":"November","Order":375,"Region":"Asia","Season":2,"Show":"Parts Unknown","State":null,"Title":"Tokyo","Year":2013},{"Air_Date":1384041600000,"City":"Detroit","Country":"United States","Day":10,"Episode":9,"Latitude":42.331427,"Longitude":-83.045754,"Month1":11,"Month":"November","Order":376,"Region":"North America","Season":2,"Show":"Parts Unknown","State":"Michigan","Title":"Detroit","Year":2013},{"Air_Date":1397347200000,"City":"Amritsar","Country":"India","Day":13,"Episode":2,"Latitude":31.633979,"Longitude":74.872264,"Month1":4,"Month":"April","Order":377,"Region":"Asia","Season":3,"Show":"Parts Unknown","State":null,"Title":"Punjab, India","Year":2014},{"Air_Date":1397952000000,"City":"Las Vegas","Country":"United States","Day":20,"Episode":3,"Latitude":36.169941,"Longitude":-115.13983,"Month1":4,"Month":"April","Order":378,"Region":"North America","Season":3,"Show":"Parts Unknown","State":"Nevada","Title":"Las Vegas","Year":2014},{"Air_Date":1398556800000,"City":"Lyon","Country":"France","Day":27,"Episode":4,"Latitude":45.764043,"Longitude":4.835659,"Month1":4,"Month":"April","Order":379,"Region":"Europe","Season":3,"Show":"Parts Unknown","State":null,"Title":"Lyon","Year":2014},{"Air_Date":1399161600000,"City":"Cuernavaca","Country":"Mexico","Day":4,"Episode":5,"Latitude":18.924209,"Longitude":-99.221566,"Month1":5,"Month":"May","Order":380,"Region":"North America","Season":3,"Show":"Parts Unknown","State":null,"Title":"Mexico City","Year":2014},{"Air_Date":1399161600000,"City":"Mexico City","Country":"Mexico","Day":4,"Episode":5,"Latitude":19.432608,"Longitude":-99.133208,"Month1":5,"Month":"May","Order":381,"Region":"North America","Season":3,"Show":"Parts Unknown","State":null,"Title":"Mexico City","Year":2014},{"Air_Date":1399161600000,"City":"Oaxaca","Country":"Mexico","Day":4,"Episode":5,"Latitude":17.073184,"Longitude":-96.726589,"Month1":5,"Month":"May","Order":382,"Region":"North America","Season":3,"Show":"Parts Unknown","State":null,"Title":"Mexico City","Year":2014},{"Air_Date":1399766400000,"City":"Moscow","Country":"Russia","Day":11,"Episode":6,"Latitude":55.755826,"Longitude":37.6173,"Month1":5,"Month":"May","Order":383,"Region":"Europe","Season":3,"Show":"Parts Unknown","State":null,"Title":"Russia","Year":2014},{"Air_Date":1399766400000,"City":"St. Petersburg","Country":"Russia","Day":11,"Episode":6,"Latitude":59.93428,"Longitude":30.335099,"Month1":5,"Month":"May","Order":384,"Region":"Europe","Season":3,"Show":"Parts Unknown","State":null,"Title":"Russia","Year":2014},{"Air_Date":1400371200000,"City":"Jackson","Country":"United States","Day":18,"Episode":7,"Latitude":32.298757,"Longitude":-90.18481,"Month1":5,"Month":"May","Order":385,"Region":"North America","Season":3,"Show":"Parts Unknown","State":"Mississippi","Title":"Mississippi Delta","Year":2014},{"Air_Date":1400371200000,"City":"Merigold","Country":"United States","Day":18,"Episode":7,"Latitude":33.839001,"Longitude":-90.726209,"Month1":5,"Month":"May","Order":386,"Region":"North America","Season":3,"Show":"Parts Unknown","State":"Mississippi","Title":"Mississippi Delta","Year":2014},{"Air_Date":1401580800000,"City":"Chiang Mai Province","Country":"Thailand","Day":1,"Episode":8,"Latitude":18.787747,"Longitude":98.993128,"Month1":6,"Month":"June","Order":387,"Region":"Asia","Season":3,"Show":"Parts Unknown","State":null,"Title":"Thailand","Year":2014},{"Air_Date":1402185600000,"City":"Bahia","Country":"Brazil","Day":8,"Episode":9,"Latitude":-12.579738,"Longitude":-41.700727,"Month1":6,"Month":"June","Order":388,"Region":"South America","Season":3,"Show":"Parts Unknown","State":null,"Title":"Bahia, Brazil","Year":2014},{"Air_Date":1411862400000,"City":"Shanghai","Country":"China","Day":28,"Episode":2,"Latitude":31.23039,"Longitude":121.473702,"Month1":9,"Month":"September","Order":389,"Region":"Asia","Season":4,"Show":"Parts Unknown","State":null,"Title":"Shanghai","Year":2014},{"Air_Date":1412467200000,"City":"The Bronx","Country":"United States","Day":5,"Episode":3,"Latitude":40.844782,"Longitude":-73.864827,"Month1":10,"Month":"October","Order":390,"Region":"North America","Season":4,"Show":"Parts Unknown","State":"New York","Title":"The Bronx","Year":2014},{"Air_Date":1413072000000,"City":"Asunci\u00f3n","Country":"Paraguay","Day":12,"Episode":4,"Latitude":-25.26374,"Longitude":-57.575926,"Month1":10,"Month":"October","Order":391,"Region":"South America","Season":4,"Show":"Parts Unknown","State":null,"Title":"Paraguay","Year":2014},{"Air_Date":1413676800000,"City":"Hu\u1ebf","Country":"Vietnam","Day":19,"Episode":5,"Latitude":16.463712,"Longitude":107.590863,"Month1":10,"Month":"October","Order":392,"Region":"Asia","Season":4,"Show":"Parts Unknown","State":null,"Title":"Vietnam","Year":2014},{"Air_Date":1413676800000,"City":"Qu\u1ea3ng Tr\u1ecb","Country":"Vietnam","Day":19,"Episode":5,"Latitude":16.794347,"Longitude":106.963409,"Month1":10,"Month":"October","Order":393,"Region":"Asia","Season":4,"Show":"Parts Unknown","State":null,"Title":"Vietnam","Year":2014},{"Air_Date":1414281600000,"City":"Ngorongoro Crater","Country":"Tanzania","Day":26,"Episode":6,"Latitude":-3.161752,"Longitude":35.58767,"Month1":10,"Month":"October","Order":394,"Region":"Africa","Season":4,"Show":"Parts Unknown","State":null,"Title":"Tanzania","Year":2014},{"Air_Date":1414281600000,"City":"Serengeti","Country":"Tanzania","Day":26,"Episode":6,"Latitude":-2.153994,"Longitude":34.685651,"Month1":10,"Month":"October","Order":395,"Region":"Africa","Season":4,"Show":"Parts Unknown","State":null,"Title":"Tanzania","Year":2014},{"Air_Date":1414281600000,"City":"Zanzibar","Country":"Tanzania","Day":26,"Episode":6,"Latitude":-6.13573,"Longitude":39.36212,"Month1":10,"Month":"October","Order":396,"Region":"Africa","Season":4,"Show":"Parts Unknown","State":null,"Title":"Tanzania","Year":2014},{"Air_Date":1414886400000,"City":"Isfana","Country":"Iran","Day":2,"Episode":7,"Latitude":32.654627,"Longitude":51.667983,"Month1":11,"Month":"November","Order":397,"Region":"Middle East","Season":4,"Show":"Parts Unknown","State":null,"Title":"Iran","Year":2014},{"Air_Date":1414886400000,"City":"Tehran","Country":"Iran","Day":2,"Episode":7,"Latitude":35.689197,"Longitude":51.388974,"Month1":11,"Month":"November","Order":398,"Region":"Middle East","Season":4,"Show":"Parts Unknown","State":null,"Title":"Iran","Year":2014},{"Air_Date":1415491200000,"City":"Provincetown","Country":"United States","Day":9,"Episode":8,"Latitude":42.058441,"Longitude":-70.178643,"Month1":11,"Month":"November","Order":399,"Region":"North America","Season":4,"Show":"Parts Unknown","State":"Massachusetts","Title":"Massachusetts","Year":2014},{"Air_Date":1415491200000,"City":"Franklin County","Country":"United States","Day":9,"Episode":8,"Latitude":42.530599,"Longitude":-72.615117,"Month1":11,"Month":"November","Order":400,"Region":"North America","Season":4,"Show":"Parts Unknown","State":"Massachusetts","Title":"Massachusetts","Year":2014},{"Air_Date":1416096000000,"City":"Oracabessa","Country":"Jamaica","Day":16,"Episode":9,"Latitude":18.403475,"Longitude":-76.938379,"Month1":11,"Month":"November","Order":401,"Region":"Central America","Season":4,"Show":"Parts Unknown","State":null,"Title":"Jamaica","Year":2014},{"Air_Date":1416096000000,"City":"Port Antonio","Country":"Jamaica","Day":16,"Episode":9,"Latitude":18.171276,"Longitude":-76.447632,"Month1":11,"Month":"November","Order":402,"Region":"Central America","Season":4,"Show":"Parts Unknown","State":null,"Title":"Jamaica","Year":2014},{"Air_Date":1430006400000,"City":"Seoul","Country":"South Korea","Day":26,"Episode":2,"Latitude":37.566535,"Longitude":126.977969,"Month1":4,"Month":"April","Order":403,"Region":"Asia","Season":5,"Show":"Parts Unknown","State":null,"Title":"Korea","Year":2015},{"Air_Date":1430611200000,"City":"Miami","Country":"United States","Day":3,"Episode":3,"Latitude":25.76168,"Longitude":-80.19179,"Month1":5,"Month":"May","Order":404,"Region":"North America","Season":5,"Show":"Parts Unknown","State":"Florida","Title":"Miami","Year":2015},{"Air_Date":1431216000000,"City":"Glasgow","Country":"United Kingdom","Day":10,"Episode":4,"Latitude":55.864237,"Longitude":-4.251806,"Month1":5,"Month":"May","Order":405,"Region":"Europe","Season":5,"Show":"Parts Unknown","State":null,"Title":"Scotland","Year":2015},{"Air_Date":1431820800000,"City":"Antananarivo","Country":"Madagascar","Day":17,"Episode":5,"Latitude":-18.87919,"Longitude":47.507905,"Month1":5,"Month":"May","Order":406,"Region":"Africa","Season":5,"Show":"Parts Unknown","State":null,"Title":"Madagascar","Year":2015},{"Air_Date":1433030400000,"City":"Barnegat Light","Country":"United States","Day":31,"Episode":6,"Latitude":39.75762,"Longitude":-74.106247,"Month1":5,"Month":"May","Order":407,"Region":"North America","Season":5,"Show":"Parts Unknown","State":"New Jersey","Title":"New Jersey","Year":2015},{"Air_Date":1433030400000,"City":"Atlantic City","Country":"United States","Day":31,"Episode":6,"Latitude":39.364283,"Longitude":-74.422927,"Month1":5,"Month":"May","Order":408,"Region":"North America","Season":5,"Show":"Parts Unknown","State":"New Jersey","Title":"New Jersey","Year":2015},{"Air_Date":1433030400000,"City":"Fort Lee","Country":"United States","Day":31,"Episode":6,"Latitude":40.850933,"Longitude":-73.970138,"Month1":5,"Month":"May","Order":409,"Region":"North America","Season":5,"Show":"Parts Unknown","State":"New Jersey","Title":"New Jersey","Year":2015},{"Air_Date":1433030400000,"City":"Asbury Park","Country":"United States","Day":31,"Episode":6,"Latitude":40.220391,"Longitude":-74.012082,"Month1":5,"Month":"May","Order":410,"Region":"North America","Season":5,"Show":"Parts Unknown","State":"New Jersey","Title":"New Jersey","Year":2015},{"Air_Date":1433030400000,"City":"Camden","Country":"United States","Day":31,"Episode":6,"Latitude":39.925946,"Longitude":-75.11962,"Month1":5,"Month":"May","Order":411,"Region":"North America","Season":5,"Show":"Parts Unknown","State":"New Jersey","Title":"New Jersey","Year":2015},{"Air_Date":1433635200000,"City":"Budapest","Country":"Hungary","Day":7,"Episode":7,"Latitude":47.497912,"Longitude":19.040235,"Month1":6,"Month":"June","Order":412,"Region":"Europe","Season":5,"Show":"Parts Unknown","State":null,"Title":"Budapest","Year":2015},{"Air_Date":1434240000000,"City":"Honolulu","Country":"United States","Day":14,"Episode":8,"Latitude":21.306944,"Longitude":-157.858333,"Month1":6,"Month":"June","Order":413,"Region":"Oceania","Season":5,"Show":"Parts Unknown","State":"Hawaii","Title":"Hawaii","Year":2015},{"Air_Date":1434240000000,"City":"Molokai","Country":"United States","Day":14,"Episode":8,"Latitude":21.144393,"Longitude":-157.02263,"Month1":6,"Month":"June","Order":414,"Region":"Oceania","Season":5,"Show":"Parts Unknown","State":"Hawaii","Title":"Hawaii","Year":2015},{"Air_Date":1434844800000,"City":"Beirut","Country":"Lebanon","Day":21,"Episode":9,"Latitude":33.893791,"Longitude":35.501777,"Month1":6,"Month":"June","Order":415,"Region":"Middle East","Season":5,"Show":"Parts Unknown","State":null,"Title":"Beirut","Year":2015},{"Air_Date":1443312000000,"City":"Havana","Country":"Cuba","Day":27,"Episode":2,"Latitude":23.113592,"Longitude":-82.366596,"Month1":9,"Month":"September","Order":416,"Region":"Central America","Season":6,"Show":"Parts Unknown","State":null,"Title":"Cuba","Year":2015},{"Air_Date":1443312000000,"City":"Santiago","Country":"Cuba","Day":27,"Episode":2,"Latitude":20.01693,"Longitude":-75.830154,"Month1":9,"Month":"September","Order":417,"Region":"Central America","Season":6,"Show":"Parts Unknown","State":null,"Title":"Cuba","Year":2015},{"Air_Date":1443916800000,"City":"Marseille","Country":"France","Day":4,"Episode":3,"Latitude":43.296482,"Longitude":5.36978,"Month1":10,"Month":"October","Order":418,"Region":"Europe","Season":6,"Show":"Parts Unknown","State":null,"Title":"Marseille, France","Year":2015},{"Air_Date":1444521600000,"City":"Okinawa","Country":"Japan","Day":11,"Episode":4,"Latitude":26.212401,"Longitude":127.680932,"Month1":10,"Month":"October","Order":419,"Region":"Asia","Season":6,"Show":"Parts Unknown","State":null,"Title":"Okinawa, Japan","Year":2015},{"Air_Date":1445126400000,"City":"San Francisco","Country":"United States","Day":18,"Episode":5,"Latitude":37.827178,"Longitude":-122.291308,"Month1":10,"Month":"October","Order":420,"Region":"North America","Season":6,"Show":"Parts Unknown","State":"California","Title":"Bay Area","Year":2015},{"Air_Date":1445731200000,"City":"Addis Ababa","Country":"Ethiopia","Day":25,"Episode":6,"Latitude":8.980603,"Longitude":38.757761,"Month1":10,"Month":"October","Order":421,"Region":"Africa","Season":6,"Show":"Parts Unknown","State":null,"Title":"Ethiopia","Year":2015},{"Air_Date":1446336000000,"City":"Kuching","Country":"Malaysia","Day":1,"Episode":7,"Latitude":1.553504,"Longitude":110.359293,"Month1":11,"Month":"November","Order":422,"Region":"Asia","Season":6,"Show":"Parts Unknown","State":null,"Title":"Borneo","Year":2015},{"Air_Date":1446940800000,"City":"Istanbul","Country":"Turkey","Day":8,"Episode":8,"Latitude":41.008238,"Longitude":28.978359,"Month1":11,"Month":"November","Order":423,"Region":"Middle East","Season":6,"Show":"Parts Unknown","State":null,"Title":"Istanbul","Year":2015},{"Air_Date":1447545600000,"City":"Charleston","Country":"United States","Day":15,"Episode":9,"Latitude":32.776475,"Longitude":-79.931051,"Month1":11,"Month":"November","Order":424,"Region":"North America","Season":6,"Show":"Parts Unknown","State":"South Carolina","Title":"Charleston, SC","Year":2015},{"Air_Date":1447545600000,"City":"Hemingway","Country":"United States","Day":15,"Episode":9,"Latitude":33.753777,"Longitude":-79.447557,"Month1":11,"Month":"November","Order":425,"Region":"North America","Season":6,"Show":"Parts Unknown","State":"South Carolina","Title":"Charleston, SC","Year":2015},{"Air_Date":1461456000000,"City":"Manila","Country":"Philippines","Day":24,"Episode":2,"Latitude":14.599512,"Longitude":120.984219,"Month1":4,"Month":"April","Order":426,"Region":"Asia","Season":7,"Show":"Parts Unknown","State":null,"Title":"Manila, Philippines","Year":2016},{"Air_Date":1462060800000,"City":"Chicago","Country":"United States","Day":1,"Episode":3,"Latitude":41.878114,"Longitude":-87.629798,"Month1":5,"Month":"May","Order":427,"Region":"North America","Season":7,"Show":"Parts Unknown","State":"Illinois","Title":"Chicago","Year":2016},{"Air_Date":1462665600000,"City":"Naxos","Country":"Greece","Day":8,"Episode":4,"Latitude":37.103566,"Longitude":25.377673,"Month1":5,"Month":"May","Order":428,"Region":"Europe","Season":7,"Show":"Parts Unknown","State":null,"Title":"The Greek Islands","Year":2016},{"Air_Date":1463270400000,"City":"Butte","Country":"United States","Day":15,"Episode":5,"Latitude":46.003823,"Longitude":-112.534778,"Month1":5,"Month":"May","Order":429,"Region":"North America","Season":7,"Show":"Parts Unknown","State":"Montana","Title":"Montana","Year":2016},{"Air_Date":1463270400000,"City":"Powell County","Country":"United States","Day":15,"Episode":5,"Latitude":46.931145,"Longitude":-112.974547,"Month1":5,"Month":"May","Order":430,"Region":"North America","Season":7,"Show":"Parts Unknown","State":"Montana","Title":"Montana","Year":2016},{"Air_Date":1463270400000,"City":"Crow Indian Reservation","Country":"United States","Day":15,"Episode":5,"Latitude":45.383294,"Longitude":-107.833996,"Month1":5,"Month":"May","Order":431,"Region":"North America","Season":7,"Show":"Parts Unknown","State":"Montana","Title":"Montana","Year":2016},{"Air_Date":1463875200000,"City":"Tbilisi","Country":"Georgia","Day":22,"Episode":6,"Latitude":41.789233,"Longitude":44.775387,"Month1":5,"Month":"May","Order":432,"Region":"Asia","Season":7,"Show":"Parts Unknown","State":null,"Title":"Tbilisi, Georgia","Year":2016},{"Air_Date":1464480000000,"City":"Dakar","Country":"Senegal","Day":29,"Episode":7,"Latitude":14.716677,"Longitude":-17.467686,"Month1":5,"Month":"May","Order":433,"Region":"Africa","Season":7,"Show":"Parts Unknown","State":null,"Title":"Senegal","Year":2016},{"Air_Date":1465084800000,"City":"Cologne","Country":"Germany","Day":5,"Episode":8,"Latitude":50.937531,"Longitude":6.960279,"Month1":6,"Month":"June","Order":434,"Region":"Europe","Season":7,"Show":"Parts Unknown","State":null,"Title":"Cologne, Germany","Year":2016},{"Air_Date":1474761600000,"City":"Hanoi","Country":"Vietnam","Day":25,"Episode":2,"Latitude":21.027764,"Longitude":105.83416,"Month1":9,"Month":"September","Order":435,"Region":"Asia","Season":8,"Show":"Parts Unknown","State":null,"Title":"Hanoi","Year":2016},{"Air_Date":1475366400000,"City":"Nashville","Country":"United States","Day":2,"Episode":3,"Latitude":36.162664,"Longitude":-86.781602,"Month1":10,"Month":"October","Order":436,"Region":"North America","Season":8,"Show":"Parts Unknown","State":"Tennessee","Title":"Nashville","Year":2016},{"Air_Date":1476576000000,"City":"Chengdu","Country":"China","Day":16,"Episode":4,"Latitude":30.572815,"Longitude":104.066801,"Month1":10,"Month":"October","Order":437,"Region":"Asia","Season":8,"Show":"Parts Unknown","State":null,"Title":"Sichuan","Year":2016},{"Air_Date":1476576000000,"City":"Leshan","Country":"China","Day":16,"Episode":4,"Latitude":29.552115,"Longitude":103.765678,"Month1":10,"Month":"October","Order":438,"Region":"Asia","Season":8,"Show":"Parts Unknown","State":null,"Title":"Sichuan","Year":2016},{"Air_Date":1477180800000,"City":"London","Country":"United Kingdom","Day":23,"Episode":5,"Latitude":51.507351,"Longitude":-0.127758,"Month1":10,"Month":"October","Order":439,"Region":"Europe","Season":8,"Show":"Parts Unknown","State":null,"Title":"London","Year":2016},{"Air_Date":1477785600000,"City":"Houston","Country":"United States","Day":30,"Episode":6,"Latitude":29.760427,"Longitude":-95.369803,"Month1":10,"Month":"October","Order":440,"Region":"North America","Season":8,"Show":"Parts Unknown","State":"Texas","Title":"Houston","Year":2016},{"Air_Date":1478995200000,"City":"Ishikawa Prefecture","Country":"Japan","Day":13,"Episode":7,"Latitude":36.594682,"Longitude":136.625573,"Month1":11,"Month":"November","Order":441,"Region":"Asia","Season":8,"Show":"Parts Unknown","State":null,"Title":"Japan","Year":2016},{"Air_Date":1478995200000,"City":"Tochigi Prefecture","Country":"Japan","Day":13,"Episode":7,"Latitude":36.565725,"Longitude":139.883565,"Month1":11,"Month":"November","Order":442,"Region":"Asia","Season":8,"Show":"Parts Unknown","State":null,"Title":"Japan","Year":2016},{"Air_Date":1479600000000,"City":"Buenos Aires","Country":"Argentina","Day":20,"Episode":8,"Latitude":-34.603684,"Longitude":-58.381559,"Month1":11,"Month":"November","Order":443,"Region":"South America","Season":8,"Show":"Parts Unknown","State":null,"Title":"Buenos Aires","Year":2016},{"Air_Date":1480204800000,"City":"Belo Horizonte, Minas Gerais","Country":"Brazil","Day":27,"Episode":9,"Latitude":-18.512178,"Longitude":-44.555031,"Month1":11,"Month":"November","Order":444,"Region":"South America","Season":8,"Show":"Parts Unknown","State":null,"Title":"Minas Gerais, Brazil","Year":2016},{"Air_Date":1480204800000,"City":"Brumadinho","Country":"Brazil","Day":27,"Episode":9,"Latitude":-20.127591,"Longitude":-44.215336,"Month1":11,"Month":"November","Order":445,"Region":"South America","Season":8,"Show":"Parts Unknown","State":null,"Title":"Minas Gerais, Brazil","Year":2016},{"Air_Date":1480809600000,"City":"Rome","Country":"Italy","Day":4,"Episode":10,"Latitude":41.902783,"Longitude":12.496366,"Month1":12,"Month":"December","Order":446,"Region":"Europe","Season":8,"Show":"Parts Unknown","State":null,"Title":"Rome","Year":2016},{"Air_Date":1493510400000,"City":"Los Angeles","Country":"United States","Day":30,"Episode":2,"Latitude":34.052234,"Longitude":-118.243685,"Month1":4,"Month":"April","Order":447,"Region":"North America","Season":9,"Show":"Parts Unknown","State":"California","Title":"Los Angeles","Year":2017},{"Air_Date":1494115200000,"City":"San Sebastian","Country":"Spain","Day":7,"Episode":3,"Latitude":43.318334,"Longitude":-1.981231,"Month1":5,"Month":"May","Order":448,"Region":"Europe","Season":9,"Show":"Parts Unknown","State":null,"Title":"San Sebastian","Year":2017},{"Air_Date":1494720000000,"City":"Luang Prabang","Country":"Laos","Day":14,"Episode":4,"Latitude":20.065623,"Longitude":102.621621,"Month1":5,"Month":"May","Order":449,"Region":"Asia","Season":9,"Show":"Parts Unknown","State":null,"Title":"Laos","Year":2017},{"Air_Date":1495324800000,"City":"Queens","Country":"United States","Day":21,"Episode":5,"Latitude":40.728224,"Longitude":-73.794852,"Month1":5,"Month":"May","Order":450,"Region":"North America","Season":9,"Show":"Parts Unknown","State":"New York","Title":"Queens","Year":2017},{"Air_Date":1496534400000,"City":"McMurdo Station","Country":"Antarctica","Day":4,"Episode":6,"Latitude":-77.846388,"Longitude":166.66833,"Month1":6,"Month":"June","Order":451,"Region":"Antarctica","Season":9,"Show":"Parts Unknown","State":null,"Title":"Antarctica","Year":2017},{"Air_Date":1496534400000,"City":"Cape Royds","Country":"Antarctica","Day":4,"Episode":6,"Latitude":-77.554281,"Longitude":166.16443,"Month1":6,"Month":"June","Order":452,"Region":"Antarctica","Season":9,"Show":"Parts Unknown","State":null,"Title":"Antarctica","Year":2017},{"Air_Date":1496534400000,"City":"Lake Hoare","Country":"Antarctica","Day":4,"Episode":6,"Latitude":-77.633703,"Longitude":162.8805,"Month1":6,"Month":"June","Order":453,"Region":"Antarctica","Season":9,"Show":"Parts Unknown","State":null,"Title":"Antarctica","Year":2017},{"Air_Date":1496534400000,"City":"South Pole","Country":"Antarctica","Day":4,"Episode":6,"Latitude":-72.294011,"Longitude":0.696229,"Month1":6,"Month":"June","Order":454,"Region":"Antarctica","Season":9,"Show":"Parts Unknown","State":null,"Title":"Antarctica","Year":2017},{"Air_Date":1497139200000,"City":"Jebel Akhdar","Country":"Oman","Day":11,"Episode":7,"Latitude":23.185608,"Longitude":57.371388,"Month1":6,"Month":"June","Order":455,"Region":"Middle East","Season":9,"Show":"Parts Unknown","State":null,"Title":"Oman","Year":2017},{"Air_Date":1497139200000,"City":"Muscat","Country":"Oman","Day":11,"Episode":7,"Latitude":23.58589,"Longitude":58.405923,"Month1":6,"Month":"June","Order":456,"Region":"Middle East","Season":9,"Show":"Parts Unknown","State":null,"Title":"Oman","Year":2017},{"Air_Date":1498348800000,"City":"Port Of Spain","Country":"Trinidad and Tobago","Day":25,"Episode":8,"Latitude":10.654901,"Longitude":-61.501926,"Month1":6,"Month":"June","Order":457,"Region":"Central America","Season":9,"Show":"Parts Unknown","State":null,"Title":"Trinidad","Year":2017},{"Air_Date":1498953600000,"City":"Porto","Country":"Portugal","Day":2,"Episode":9,"Latitude":41.157944,"Longitude":-8.629105,"Month1":7,"Month":"July","Order":458,"Region":"Europe","Season":9,"Show":"Parts Unknown","State":null,"Title":"Porto, Portugal","Year":2017},{"Air_Date":1506816000000,"City":"Singapore","Country":"Singapore","Day":1,"Episode":1,"Latitude":1.352083,"Longitude":103.819836,"Month1":10,"Month":"October","Order":459,"Region":"Asia","Season":10,"Show":"Parts Unknown","State":null,"Title":"Singapore","Year":2017},{"Air_Date":1507420800000,"City":"Argenti\u00e8re","Country":"France","Day":8,"Episode":2,"Latitude":45.983986,"Longitude":6.926873,"Month1":10,"Month":"October","Order":460,"Region":"Europe","Season":10,"Show":"Parts Unknown","State":null,"Title":"French Alps","Year":2017},{"Air_Date":1507420800000,"City":"Chamonix-Mont-Blanc","Country":"France","Day":8,"Episode":2,"Latitude":45.923697,"Longitude":6.869433,"Month1":10,"Month":"October","Order":461,"Region":"Europe","Season":10,"Show":"Parts Unknown","State":null,"Title":"French Alps","Year":2017},{"Air_Date":1507420800000,"City":"Nus","Country":"Italy","Day":8,"Episode":2,"Latitude":45.800828,"Longitude":7.499153,"Month1":10,"Month":"October","Order":462,"Region":"Europe","Season":10,"Show":"Parts Unknown","State":null,"Title":"French Alps","Year":2017},{"Air_Date":1507420800000,"City":"Vallorcine","Country":"France","Day":8,"Episode":2,"Latitude":46.033505,"Longitude":6.931817,"Month1":10,"Month":"October","Order":463,"Region":"Europe","Season":10,"Show":"Parts Unknown","State":null,"Title":"French Alps","Year":2017},{"Air_Date":1508025600000,"City":"Lagos","Country":"Nigeria","Day":15,"Episode":3,"Latitude":6.524379,"Longitude":3.379206,"Month1":10,"Month":"October","Order":464,"Region":"Africa","Season":10,"Show":"Parts Unknown","State":null,"Title":"Lagos, Nigeria","Year":2017},{"Air_Date":1508630400000,"City":"Pittsburg","Country":"United States","Day":22,"Episode":4,"Latitude":40.440625,"Longitude":-79.995886,"Month1":10,"Month":"October","Order":465,"Region":"North America","Season":10,"Show":"Parts Unknown","State":"Pennsylvania","Title":"Pittsburgh","Year":2017},{"Air_Date":1509235200000,"City":"Colombo","Country":"Sri Lanka","Day":29,"Episode":5,"Latitude":6.927079,"Longitude":79.861243,"Month1":10,"Month":"October","Order":466,"Region":"Asia","Season":10,"Show":"Parts Unknown","State":null,"Title":"Sri Lanka","Year":2017},{"Air_Date":1509235200000,"City":"Jaffna","Country":"Sri Lanka","Day":29,"Episode":5,"Latitude":9.661498,"Longitude":80.025547,"Month1":10,"Month":"October","Order":467,"Region":"Asia","Season":10,"Show":"Parts Unknown","State":null,"Title":"Sri Lanka","Year":2017},{"Air_Date":1509840000000,"City":"Ciales","Country":"Puerto Rico","Day":5,"Episode":6,"Latitude":18.335325,"Longitude":-66.468072,"Month1":11,"Month":"November","Order":468,"Region":"Central America","Season":10,"Show":"Parts Unknown","State":null,"Title":"Puerto Rico","Year":2017},{"Air_Date":1509840000000,"City":"San Juan","Country":"Puerto Rico","Day":5,"Episode":6,"Latitude":18.465539,"Longitude":-66.105735,"Month1":11,"Month":"November","Order":469,"Region":"Central America","Season":10,"Show":"Parts Unknown","State":null,"Title":"Puerto Rico","Year":2017},{"Air_Date":1509840000000,"City":"Valle Costero","Country":"Puerto Rico","Day":5,"Episode":6,"Latitude":18.010562,"Longitude":-66.376779,"Month1":11,"Month":"November","Order":470,"Region":"Central America","Season":10,"Show":"Parts Unknown","State":null,"Title":"Puerto Rico","Year":2017},{"Air_Date":1509840000000,"City":"Vieques","Country":"Puerto Rico","Day":5,"Episode":6,"Latitude":18.126285,"Longitude":-65.440098,"Month1":11,"Month":"November","Order":471,"Region":"Central America","Season":10,"Show":"Parts Unknown","State":null,"Title":"Puerto Rico","Year":2017},{"Air_Date":1511049600000,"City":"Seattle","Country":"United States","Day":19,"Episode":7,"Latitude":47.606209,"Longitude":-122.332071,"Month1":11,"Month":"November","Order":472,"Region":"North America","Season":10,"Show":"Parts Unknown","State":"Washington","Title":"Seattle","Year":2017},{"Air_Date":1511654400000,"City":"Bernalda","Country":"Italy","Day":26,"Episode":8,"Latitude":40.410981,"Longitude":16.689595,"Month1":11,"Month":"November","Order":473,"Region":"Europe","Season":10,"Show":"Parts Unknown","State":null,"Title":"Southern Italy","Year":2017},{"Air_Date":1511654400000,"City":"Lecce","Country":"Italy","Day":26,"Episode":8,"Latitude":40.351515,"Longitude":18.175016,"Month1":11,"Month":"November","Order":474,"Region":"Europe","Season":10,"Show":"Parts Unknown","State":null,"Title":"Southern Italy","Year":2017},{"Air_Date":1511654400000,"City":"Torre Canne","Country":"Italy","Day":26,"Episode":8,"Latitude":40.840472,"Longitude":17.470018,"Month1":11,"Month":"November","Order":475,"Region":"Europe","Season":10,"Show":"Parts Unknown","State":null,"Title":"Southern Italy","Year":2017},{"Air_Date":1524960000000,"City":"War","Country":"United States","Day":29,"Episode":1,"Latitude":37.301225,"Longitude":-81.690943,"Month1":4,"Month":"April","Order":476,"Region":"North America","Season":11,"Show":"Parts Unknown","State":"West Virginia","Title":"West Virginia","Year":2018},{"Air_Date":1524960000000,"City":"Man","Country":"United States","Day":29,"Episode":1,"Latitude":37.739829,"Longitude":-81.877619,"Month1":4,"Month":"April","Order":477,"Region":"North America","Season":11,"Show":"Parts Unknown","State":"West Virginia","Title":"West Virginia","Year":2018},{"Air_Date":1524960000000,"City":"Lost Creek","Country":"United States","Day":29,"Episode":1,"Latitude":39.161203,"Longitude":-80.352034,"Month1":4,"Month":"April","Order":478,"Region":"North America","Season":11,"Show":"Parts Unknown","State":"West Virginia","Title":"West Virginia","Year":2018},{"Air_Date":1524960000000,"City":"Welch","Country":"United States","Day":29,"Episode":1,"Latitude":37.432891,"Longitude":-81.584551,"Month1":4,"Month":"April","Order":479,"Region":"North America","Season":11,"Show":"Parts Unknown","State":"West Virginia","Title":"West Virginia","Year":2018},{"Air_Date":1524960000000,"City":"Philippi","Country":"United States","Day":29,"Episode":1,"Latitude":39.15232,"Longitude":-80.040358,"Month1":4,"Month":"April","Order":480,"Region":"North America","Season":11,"Show":"Parts Unknown","State":"West Virginia","Title":"West Virginia","Year":2018},{"Air_Date":1525564800000,"City":"Jose Ignacio","Country":"Uruguay","Day":6,"Episode":2,"Latitude":-34.835915,"Longitude":-54.645146,"Month1":5,"Month":"May","Order":481,"Region":"South America","Season":11,"Show":"Parts Unknown","State":null,"Title":"Uruguay","Year":2018},{"Air_Date":1525564800000,"City":"Montevideo","Country":"Uruguay","Day":6,"Episode":2,"Latitude":-34.901113,"Longitude":-56.164531,"Month1":5,"Month":"May","Order":482,"Region":"South America","Season":11,"Show":"Parts Unknown","State":null,"Title":"Uruguay","Year":2018},{"Air_Date":1525564800000,"City":"Santa Lucia","Country":"Uruguay","Day":6,"Episode":2,"Latitude":-34.452252,"Longitude":-56.388019,"Month1":5,"Month":"May","Order":483,"Region":"South America","Season":11,"Show":"Parts Unknown","State":null,"Title":"Uruguay","Year":2018},{"Air_Date":1526169600000,"City":"Petty Harbour","Country":"Canada","Day":13,"Episode":3,"Latitude":47.469784,"Longitude":-52.705178,"Month1":5,"Month":"May","Order":484,"Region":"North America","Season":11,"Show":"Parts Unknown","State":null,"Title":"Newfoundland","Year":2018},{"Air_Date":1526169600000,"City":"St. John's","Country":"Canada","Day":13,"Episode":3,"Latitude":47.56151,"Longitude":-52.712577,"Month1":5,"Month":"May","Order":485,"Region":"North America","Season":11,"Show":"Parts Unknown","State":null,"Title":"Newfoundland","Year":2018},{"Air_Date":1526169600000,"City":"St. Pierre and Miquelon","Country":"France","Day":13,"Episode":3,"Latitude":46.8852,"Longitude":-56.3159,"Month1":5,"Month":"May","Order":486,"Region":"North America","Season":11,"Show":"Parts Unknown","State":null,"Title":"Newfoundland","Year":2018},{"Air_Date":1526774400000,"City":"Yerevan","Country":"Armenia","Day":20,"Episode":4,"Latitude":40.179186,"Longitude":44.499103,"Month1":5,"Month":"May","Order":487,"Region":"Asia","Season":11,"Show":"Parts Unknown","State":null,"Title":"Armenia","Year":2018},{"Air_Date":1527984000000,"City":"Hong Kong","Country":"China","Day":3,"Episode":5,"Latitude":22.396428,"Longitude":114.109497,"Month1":6,"Month":"June","Order":488,"Region":"Asia","Season":11,"Show":"Parts Unknown","State":null,"Title":"Hong Kong","Year":2018},{"Air_Date":1528588800000,"City":"Berlin","Country":"Germany","Day":10,"Episode":6,"Latitude":52.520007,"Longitude":13.404954,"Month1":6,"Month":"June","Order":489,"Region":"Europe","Season":11,"Show":"Parts Unknown","State":null,"Title":"Berlin","Year":2018},{"Air_Date":1529193600000,"City":"Mamou","Country":"United States","Day":17,"Episode":7,"Latitude":30.633809,"Longitude":-92.419299,"Month1":6,"Month":"June","Order":490,"Region":"North America","Season":11,"Show":"Parts Unknown","State":"Louisiana","Title":"Cajun Mardi Gras","Year":2018},{"Air_Date":1529193600000,"City":"Grand Coteau","Country":"United States","Day":17,"Episode":7,"Latitude":30.41992,"Longitude":-92.046509,"Month1":6,"Month":"June","Order":491,"Region":"North America","Season":11,"Show":"Parts Unknown","State":"Louisiana","Title":"Cajun Mardi Gras","Year":2018},{"Air_Date":1529193600000,"City":"Lafayette","Country":"United States","Day":17,"Episode":7,"Latitude":30.22409,"Longitude":-92.019843,"Month1":6,"Month":"June","Order":492,"Region":"North America","Season":11,"Show":"Parts Unknown","State":"Louisiana","Title":"Cajun Mardi Gras","Year":2018},{"Air_Date":1529193600000,"City":"Opelousas","Country":"United States","Day":17,"Episode":7,"Latitude":30.53353,"Longitude":-92.081509,"Month1":6,"Month":"June","Order":493,"Region":"North America","Season":11,"Show":"Parts Unknown","State":"Louisiana","Title":"Cajun Mardi Gras","Year":2018},{"Air_Date":1529798400000,"City":"Bumthang","Country":"Bhutan","Day":24,"Episode":8,"Latitude":27.641839,"Longitude":90.677305,"Month1":6,"Month":"June","Order":494,"Region":"Asia","Season":11,"Show":"Parts Unknown","State":null,"Title":"Bhutan","Year":2018},{"Air_Date":1529798400000,"City":"Punakha","Country":"Bhutan","Day":24,"Episode":8,"Latitude":27.592087,"Longitude":89.879746,"Month1":6,"Month":"June","Order":495,"Region":"Asia","Season":11,"Show":"Parts Unknown","State":null,"Title":"Bhutan","Year":2018},{"Air_Date":1529798400000,"City":"Thimphu","Country":"Bhutan","Day":24,"Episode":8,"Latitude":27.472792,"Longitude":89.639286,"Month1":6,"Month":"June","Order":496,"Region":"Asia","Season":11,"Show":"Parts Unknown","State":null,"Title":"Bhutan","Year":2018}]